<?xml version='1.0' encoding='UTF-8'?>
<kml xmlns='http://www.opengis.net/kml/2.2'>
	<Document>
		<name>police.kml</name>
		<Style id='Style2-point-1'>
			<IconStyle>
				<color>ff0000ff</color>
				<scale>1.0</scale>
				<Icon>
					<href>http://cse.unl.edu/~surge/docs/kml/police.png</href>
				</Icon>
			</IconStyle>
			<LabelStyle>
				<scale>0.0</scale>
			</LabelStyle>
			<BalloonStyle>
				<text>$[description]</text>
			</BalloonStyle>
		</Style>
		<Style id='Style2-point-1-hover'>
			<IconStyle>
				<color>ff0000ff</color>
				<scale>1.0</scale>
				<Icon>
					<href>http://cse.unl.edu/~surge/docs/kml/police.png</href>
				</Icon>
			</IconStyle>
			<BalloonStyle>
				<text>$[description]</text>
			</BalloonStyle>
		</Style>
		<StyleMap id='Style2-point-1-map'>
			<Pair>
				<key>normal</key>
				<styleUrl>#Style2-point-1</styleUrl>
			</Pair>
			<Pair>
				<key>highlight</key>
				<styleUrl>#Style2-point-1-hover</styleUrl>
			</Pair>
		</StyleMap>
		<Style id='Style2-line-2'>
			<LabelStyle>
				<scale>0.0</scale>
			</LabelStyle>
			<LineStyle>
				<color>800000ff</color>
				<width>2</width>
			</LineStyle>
			<BalloonStyle>
				<text>$[description]</text>
			</BalloonStyle>
		</Style>
		<Style id='Style2-line-2-hover'>
			<LineStyle>
				<color>800000ff</color>
				<width>2</width>
			</LineStyle>
			<BalloonStyle>
				<text>$[description]</text>
			</BalloonStyle>
		</Style>
		<StyleMap id='Style2-line-2-map'>
			<Pair>
				<key>normal</key>
				<styleUrl>#Style2-line-2</styleUrl>
			</Pair>
			<Pair>
				<key>highlight</key>
				<styleUrl>#Style2-line-2-hover</styleUrl>
			</Pair>
		</StyleMap>
		<Style id='Style2-polygon-3'>
			<LabelStyle>
				<scale>0.0</scale>
			</LabelStyle>
			<LineStyle>
				<color>ff666666</color>
				<width>1</width>
			</LineStyle>
			<PolyStyle>
				<color>7f0000ff</color>
			</PolyStyle>
			<BalloonStyle>
				<text>$[description]</text>
			</BalloonStyle>
		</Style>
		<Style id='Style2-polygon-3-hover'>
			<LineStyle>
				<color>ff666666</color>
				<width>1</width>
			</LineStyle>
			<PolyStyle>
				<color>7f0000ff</color>
			</PolyStyle>
			<BalloonStyle>
				<text>$[description]</text>
			</BalloonStyle>
		</Style>
		<StyleMap id='Style2-polygon-3-map'>
			<Pair>
				<key>normal</key>
				<styleUrl>#Style2-polygon-3</styleUrl>
			</Pair>
			<Pair>
				<key>highlight</key>
				<styleUrl>#Style2-polygon-3-hover</styleUrl>
			</Pair>
		</StyleMap>
		<Placemark>
			<name>Police Station Sahnewal</name>
			<snippet></snippet>
			<description><![CDATA[<div class="googft-info-window">
<b>description:</b> police<br>
<b>name:</b> Police Station Sahnewal
</div>]]></description>
			<styleUrl>#Style2-point-1-map</styleUrl>
			<ExtendedData/><Point><coordinates>75.974529,30.835254</coordinates></Point></Placemark>
		<Placemark>
			<name>ASSTT. Comm. of police</name>
			<snippet></snippet>
			<description><![CDATA[<div class="googft-info-window">
<b>description:</b> police<br>
<b>name:</b> ASSTT. Comm. of police
</div>]]></description>
			<styleUrl>#Style2-point-1-map</styleUrl>
			<ExtendedData/><Point><coordinates>72.925534,19.043297</coordinates></Point></Placemark>
		<Placemark>
			<name>Thudiyalur Police Station</name>
			<snippet></snippet>
			<description><![CDATA[<div class="googft-info-window">
<b>description:</b> police<br>
<b>name:</b> Thudiyalur Police Station
</div>]]></description>
			<styleUrl>#Style2-point-1-map</styleUrl>
			<ExtendedData/><Point><coordinates>76.941241,11.082068</coordinates></Point></Placemark>
		<Placemark>
			<name>Mambalam Police Station</name>
			<snippet></snippet>
			<description><![CDATA[<div class="googft-info-window">
<b>description:</b> police<br>
<b>name:</b> Mambalam Police Station
</div>]]></description>
			<styleUrl>#Style2-point-1-map</styleUrl>
			<ExtendedData/><Point><coordinates>80.22946,13.034957</coordinates></Point></Placemark>
		<Placemark>
			<name>Royapettah PS</name>
			<snippet></snippet>
			<description><![CDATA[<div class="googft-info-window">
<b>description:</b> police<br>
<b>name:</b> Royapettah PS
</div>]]></description>
			<styleUrl>#Style2-point-1-map</styleUrl>
			<ExtendedData/><Point><coordinates>80.263735,13.052011</coordinates></Point></Placemark>
		<Placemark>
			<snippet></snippet>
			<description><![CDATA[<div class="googft-info-window">
<b>description:</b> police<br>
<b>name:</b> 
</div>]]></description>
			<styleUrl>#Style2-point-1-map</styleUrl>
			<ExtendedData/><Point><coordinates>80.242768,13.059617</coordinates></Point></Placemark>
		<Placemark>
			<name>HSR Police station</name>
			<snippet></snippet>
			<description><![CDATA[<div class="googft-info-window">
<b>description:</b> police<br>
<b>name:</b> HSR Police station
</div>]]></description>
			<styleUrl>#Style2-point-1-map</styleUrl>
			<ExtendedData/><Point><coordinates>77.651371,12.9201</coordinates></Point></Placemark>
		<Placemark>
			<snippet></snippet>
			<description><![CDATA[<div class="googft-info-window">
<b>description:</b> police<br>
<b>name:</b> 
</div>]]></description>
			<styleUrl>#Style2-point-1-map</styleUrl>
			<ExtendedData/><Point><coordinates>79.174221,26.66154</coordinates></Point></Placemark>
		<Placemark>
			<snippet></snippet>
			<description><![CDATA[<div class="googft-info-window">
<b>description:</b> police<br>
<b>name:</b> 
</div>]]></description>
			<styleUrl>#Style2-point-1-map</styleUrl>
			<ExtendedData/><Point><coordinates>77.671963,12.88548</coordinates></Point></Placemark>
		<Placemark>
			<snippet></snippet>
			<description><![CDATA[<div class="googft-info-window">
<b>description:</b> police<br>
<b>name:</b> 
</div>]]></description>
			<styleUrl>#Style2-point-1-map</styleUrl>
			<ExtendedData/><Point><coordinates>73.9174,18.507561</coordinates></Point></Placemark>
		<Placemark>
			<name>Hebbagodi Police Station</name>
			<snippet></snippet>
			<description><![CDATA[<div class="googft-info-window">
<b>description:</b> police<br>
<b>name:</b> Hebbagodi Police Station
</div>]]></description>
			<styleUrl>#Style2-point-1-map</styleUrl>
			<ExtendedData/><Point><coordinates>77.682085,12.826365</coordinates></Point></Placemark>
		<Placemark>
			<name>Police station Shimla puri</name>
			<snippet></snippet>
			<description><![CDATA[<div class="googft-info-window">
<b>description:</b> police<br>
<b>name:</b> Police station Shimla puri
</div>]]></description>
			<styleUrl>#Style2-point-1-map</styleUrl>
			<ExtendedData/><Point><coordinates>75.861466,30.888759</coordinates></Point></Placemark>
		<Placemark>
			<name>Commissioner Of Police,  Residence</name>
			<snippet></snippet>
			<description><![CDATA[<div class="googft-info-window">
<b>description:</b> police<br>
<b>name:</b> Commissioner Of Police,  Residence
</div>]]></description>
			<styleUrl>#Style2-point-1-map</styleUrl>
			<ExtendedData/><Point><coordinates>75.83847,30.915565</coordinates></Point></Placemark>
		<Placemark>
			<snippet></snippet>
			<description><![CDATA[<div class="googft-info-window">
<b>description:</b> police<br>
<b>name:</b> 
</div>]]></description>
			<styleUrl>#Style2-point-1-map</styleUrl>
			<ExtendedData/><Point><coordinates>83.145383,25.271936</coordinates></Point></Placemark>
		<Placemark>
			<name>Haddo Police Station</name>
			<snippet></snippet>
			<description><![CDATA[<div class="googft-info-window">
<b>description:</b> police<br>
<b>name:</b> Haddo Police Station
</div>]]></description>
			<styleUrl>#Style2-point-1-map</styleUrl>
			<ExtendedData/><Point><coordinates>92.7236,11.68299</coordinates></Point></Placemark>
		<Placemark>
			<snippet></snippet>
			<description><![CDATA[<div class="googft-info-window">
<b>description:</b> police<br>
<b>name:</b> 
</div>]]></description>
			<styleUrl>#Style2-point-1-map</styleUrl>
			<ExtendedData/><Point><coordinates>82.95513,25.356733</coordinates></Point></Placemark>
		<Placemark>
			<name>DCP Bangalore North Traffic Police</name>
			<snippet></snippet>
			<description><![CDATA[<div class="googft-info-window">
<b>description:</b> police<br>
<b>name:</b> DCP Bangalore North Traffic Police
</div>]]></description>
			<styleUrl>#Style2-point-1-map</styleUrl>
			<ExtendedData/><Point><coordinates>77.558304,13.018166</coordinates></Point></Placemark>
		<Placemark>
			<name>Road closed</name>
			<snippet></snippet>
			<description><![CDATA[<div class="googft-info-window">
<b>description:</b> police<br>
<b>name:</b> Road closed
</div>]]></description>
			<styleUrl>#Style2-point-1-map</styleUrl>
			<ExtendedData/><Point><coordinates>75.861749,32.869824</coordinates></Point></Placemark>
		<Placemark>
			<name>Adambakkam Police Station</name>
			<snippet></snippet>
			<description><![CDATA[<div class="googft-info-window">
<b>description:</b> police<br>
<b>name:</b> Adambakkam Police Station
</div>]]></description>
			<styleUrl>#Style2-point-1-map</styleUrl>
			<ExtendedData/><Point><coordinates>80.201968,12.989396</coordinates></Point></Placemark>
		<Placemark>
			<name>Teynampet E2 PS</name>
			<snippet></snippet>
			<description><![CDATA[<div class="googft-info-window">
<b>description:</b> police<br>
<b>name:</b> Teynampet E2 PS
</div>]]></description>
			<styleUrl>#Style2-point-1-map</styleUrl>
			<ExtendedData/><Point><coordinates>80.249488,13.048651</coordinates></Point></Placemark>
		<Placemark>
			<name>Jayanagar 4th Block Police Station</name>
			<snippet></snippet>
			<description><![CDATA[<div class="googft-info-window">
<b>description:</b> police<br>
<b>name:</b> Jayanagar 4th Block Police Station
</div>]]></description>
			<styleUrl>#Style2-point-1-map</styleUrl>
			<ExtendedData/><Point><coordinates>77.581366,12.928565</coordinates></Point></Placemark>
		<Placemark>
			<name>Madiwala Police Station</name>
			<snippet></snippet>
			<description><![CDATA[<div class="googft-info-window">
<b>description:</b> police<br>
<b>name:</b> Madiwala Police Station
</div>]]></description>
			<styleUrl>#Style2-point-1-map</styleUrl>
			<ExtendedData/><Point><coordinates>77.620663,12.921022</coordinates></Point></Placemark>
		<Placemark>
			<name>Police Station</name>
			<snippet></snippet>
			<description><![CDATA[<div class="googft-info-window">
<b>description:</b> police<br>
<b>name:</b> Police Station
</div>]]></description>
			<styleUrl>#Style2-point-1-map</styleUrl>
			<ExtendedData/><Point><coordinates>77.008351,10.657116</coordinates></Point></Placemark>
		<Placemark>
			<snippet></snippet>
			<description><![CDATA[<div class="googft-info-window">
<b>description:</b> police<br>
<b>name:</b> 
</div>]]></description>
			<styleUrl>#Style2-point-1-map</styleUrl>
			<ExtendedData/><Point><coordinates>77.018471,10.656573</coordinates></Point></Placemark>
		<Placemark>
			<snippet></snippet>
			<description><![CDATA[<div class="googft-info-window">
<b>description:</b> police<br>
<b>name:</b> 
</div>]]></description>
			<styleUrl>#Style2-point-1-map</styleUrl>
			<ExtendedData/><Point><coordinates>77.337526,28.577965</coordinates></Point></Placemark>
		<Placemark>
			<name>Swarghat Police Station</name>
			<snippet></snippet>
			<description><![CDATA[<div class="googft-info-window">
<b>description:</b> police<br>
<b>name:</b> Swarghat Police Station
</div>]]></description>
			<styleUrl>#Style2-point-1-map</styleUrl>
			<ExtendedData/><Point><coordinates>76.717307,31.229271</coordinates></Point></Placemark>
		<Placemark>
			<snippet></snippet>
			<description><![CDATA[<div class="googft-info-window">
<b>description:</b> police<br>
<b>name:</b> 
</div>]]></description>
			<styleUrl>#Style2-point-1-map</styleUrl>
			<ExtendedData/><Point><coordinates>76.95661,8.509372</coordinates></Point></Placemark>
		<Placemark>
			<name>Adyar J2</name>
			<snippet></snippet>
			<description><![CDATA[<div class="googft-info-window">
<b>description:</b> police<br>
<b>name:</b> Adyar J2
</div>]]></description>
			<styleUrl>#Style2-point-1-map</styleUrl>
			<ExtendedData/><Point><coordinates>80.255718,12.997814</coordinates></Point></Placemark>
		<Placemark>
			<snippet></snippet>
			<description><![CDATA[<div class="googft-info-window">
<b>description:</b> police<br>
<b>name:</b> 
</div>]]></description>
			<styleUrl>#Style2-point-1-map</styleUrl>
			<ExtendedData/><Point><coordinates>80.192063,12.981469</coordinates></Point></Placemark>
		<Placemark>
			<name>Central Station PS</name>
			<snippet></snippet>
			<description><![CDATA[<div class="googft-info-window">
<b>description:</b> police<br>
<b>name:</b> Central Station PS
</div>]]></description>
			<styleUrl>#Style2-point-1-map</styleUrl>
			<ExtendedData/><Point><coordinates>80.275507,13.081828</coordinates></Point></Placemark>
		<Placemark>
			<name>Chennai Central RPF</name>
			<snippet></snippet>
			<description><![CDATA[<div class="googft-info-window">
<b>description:</b> police<br>
<b>name:</b> Chennai Central RPF
</div>]]></description>
			<styleUrl>#Style2-point-1-map</styleUrl>
			<ExtendedData/><Point><coordinates>80.2733,13.083061</coordinates></Point></Placemark>
		<Placemark>
			<name>Osmania University Police Station</name>
			<snippet></snippet>
			<description><![CDATA[<div class="googft-info-window">
<b>description:</b> police<br>
<b>name:</b> Osmania University Police Station
</div>]]></description>
			<styleUrl>#Style2-point-1-map</styleUrl>
			<ExtendedData/><Point><coordinates>78.525957,17.421528</coordinates></Point></Placemark>
		<Placemark>
			<name>Islampur Police Station</name>
			<snippet></snippet>
			<description><![CDATA[<div class="googft-info-window">
<b>description:</b> police<br>
<b>name:</b> Islampur Police Station
</div>]]></description>
			<styleUrl>#Style2-point-1-map</styleUrl>
			<ExtendedData/><Point><coordinates>77.037512,28.429162</coordinates></Point></Placemark>
		<Placemark>
			<name>Sadar Police Station</name>
			<snippet></snippet>
			<description><![CDATA[<div class="googft-info-window">
<b>description:</b> police<br>
<b>name:</b> Sadar Police Station
</div>]]></description>
			<styleUrl>#Style2-point-1-map</styleUrl>
			<ExtendedData/><Point><coordinates>77.036067,28.46406</coordinates></Point></Placemark>
		<Placemark>
			<name>Sushant Lok Police Station</name>
			<snippet></snippet>
			<description><![CDATA[<div class="googft-info-window">
<b>description:</b> police<br>
<b>name:</b> Sushant Lok Police Station
</div>]]></description>
			<styleUrl>#Style2-point-1-map</styleUrl>
			<ExtendedData/><Point><coordinates>77.072854,28.463351</coordinates></Point></Placemark>
		<Placemark>
			<name>Sirhaul Police Station</name>
			<snippet></snippet>
			<description><![CDATA[<div class="googft-info-window">
<b>description:</b> police<br>
<b>name:</b> Sirhaul Police Station
</div>]]></description>
			<styleUrl>#Style2-point-1-map</styleUrl>
			<ExtendedData/><Point><coordinates>77.066095,28.486364</coordinates></Point></Placemark>
		<Placemark>
			<name>RTO Check Post</name>
			<snippet></snippet>
			<description><![CDATA[<div class="googft-info-window">
<b>description:</b> police<br>
<b>name:</b> RTO Check Post
</div>]]></description>
			<styleUrl>#Style2-point-1-map</styleUrl>
			<ExtendedData/><Point><coordinates>77.174279,8.330708</coordinates></Point></Placemark>
		<Placemark>
			<name>Tax Check Post</name>
			<snippet></snippet>
			<description><![CDATA[<div class="googft-info-window">
<b>description:</b> police<br>
<b>name:</b> Tax Check Post
</div>]]></description>
			<styleUrl>#Style2-point-1-map</styleUrl>
			<ExtendedData/><Point><coordinates>77.181764,8.324225</coordinates></Point></Placemark>
		<Placemark>
			<name>B1 Saint Thomas Mount PS</name>
			<snippet></snippet>
			<description><![CDATA[<div class="googft-info-window">
<b>description:</b> police<br>
<b>name:</b> B1 Saint Thomas Mount PS
</div>]]></description>
			<styleUrl>#Style2-point-1-map</styleUrl>
			<ExtendedData/><Point><coordinates>80.200262,12.999121</coordinates></Point></Placemark>
		<Placemark>
			<name>Bandra police Station</name>
			<snippet></snippet>
			<description><![CDATA[<div class="googft-info-window">
<b>description:</b> police<br>
<b>name:</b> Bandra police Station
</div>]]></description>
			<styleUrl>#Style2-point-1-map</styleUrl>
			<ExtendedData/><Point><coordinates>72.83564,19.056051</coordinates></Point></Placemark>
		<Placemark>
			<name>Khar Police Station</name>
			<snippet></snippet>
			<description><![CDATA[<div class="googft-info-window">
<b>description:</b> police<br>
<b>name:</b> Khar Police Station
</div>]]></description>
			<styleUrl>#Style2-point-1-map</styleUrl>
			<ExtendedData/><Point><coordinates>72.837114,19.064037</coordinates></Point></Placemark>
		<Placemark>
			<name>Bandra Police Commisioners Office</name>
			<snippet></snippet>
			<description><![CDATA[<div class="googft-info-window">
<b>description:</b> police<br>
<b>name:</b> Bandra Police Commisioners Office
</div>]]></description>
			<styleUrl>#Style2-point-1-map</styleUrl>
			<ExtendedData/><Point><coordinates>72.822705,19.06276</coordinates></Point></Placemark>
		<Placemark>
			<snippet></snippet>
			<description><![CDATA[<div class="googft-info-window">
<b>description:</b> police<br>
<b>name:</b> 
</div>]]></description>
			<styleUrl>#Style2-point-1-map</styleUrl>
			<ExtendedData/><Point><coordinates>75.396468,28.627997</coordinates></Point></Placemark>
		<Placemark>
			<name>Madhapur Police Station</name>
			<snippet></snippet>
			<description><![CDATA[<div class="googft-info-window">
<b>description:</b> police<br>
<b>name:</b> Madhapur Police Station
</div>]]></description>
			<styleUrl>#Style2-point-1-map</styleUrl>
			<ExtendedData/><Point><coordinates>78.39619,17.439689</coordinates></Point></Placemark>
		<Placemark>
			<name>Kalpakkam Police Station</name>
			<snippet></snippet>
			<description><![CDATA[<div class="googft-info-window">
<b>description:</b> police<br>
<b>name:</b> Kalpakkam Police Station
</div>]]></description>
			<styleUrl>#Style2-point-1-map</styleUrl>
			<ExtendedData/><Point><coordinates>80.15337,12.503769</coordinates></Point></Placemark>
		<Placemark>
			<name>Dharapuram Police Station</name>
			<snippet></snippet>
			<description><![CDATA[<div class="googft-info-window">
<b>description:</b> police<br>
<b>name:</b> Dharapuram Police Station
</div>]]></description>
			<styleUrl>#Style2-point-1-map</styleUrl>
			<ExtendedData/><Point><coordinates>77.524013,10.731317</coordinates></Point></Placemark>
		<Placemark>
			<name>Sadras Police Station</name>
			<snippet></snippet>
			<description><![CDATA[<div class="googft-info-window">
<b>description:</b> police<br>
<b>name:</b> Sadras Police Station
</div>]]></description>
			<styleUrl>#Style2-point-1-map</styleUrl>
			<ExtendedData/><Point><coordinates>80.162747,12.525254</coordinates></Point></Placemark>
		<Placemark>
			<name>SR Nagar Police Station</name>
			<snippet></snippet>
			<description><![CDATA[<div class="googft-info-window">
<b>description:</b> police<br>
<b>name:</b> SR Nagar Police Station
</div>]]></description>
			<styleUrl>#Style2-point-1-map</styleUrl>
			<ExtendedData/><Point><coordinates>78.447843,17.441429</coordinates></Point></Placemark>
		<Placemark>
			<name>Hennur Police Station</name>
			<snippet></snippet>
			<description><![CDATA[<div class="googft-info-window">
<b>description:</b> police<br>
<b>name:</b> Hennur Police Station
</div>]]></description>
			<styleUrl>#Style2-point-1-map</styleUrl>
			<ExtendedData/><Point><coordinates>77.637936,13.03362</coordinates></Point></Placemark>
		<Placemark>
			<name>Koyambedu Police Station</name>
			<snippet></snippet>
			<description><![CDATA[<div class="googft-info-window">
<b>description:</b> police<br>
<b>name:</b> Koyambedu Police Station
</div>]]></description>
			<styleUrl>#Style2-point-1-map</styleUrl>
			<ExtendedData/><Point><coordinates>80.200459,13.069641</coordinates></Point></Placemark>
		<Placemark>
			<name>E1 Police Station</name>
			<snippet></snippet>
			<description><![CDATA[<div class="googft-info-window">
<b>description:</b> police<br>
<b>name:</b> E1 Police Station
</div>]]></description>
			<styleUrl>#Style2-point-1-map</styleUrl>
			<ExtendedData/><Point><coordinates>76.688478,11.412076</coordinates></Point></Placemark>
		<Placemark>
			<name>Office, Police Commissioner</name>
			<snippet></snippet>
			<description><![CDATA[<div class="googft-info-window">
<b>description:</b> police<br>
<b>name:</b> Office, Police Commissioner
</div>]]></description>
			<styleUrl>#Style2-point-1-map</styleUrl>
			<ExtendedData/><Point><coordinates>80.199093,13.010087</coordinates></Point></Placemark>
		<Placemark>
			<name>T15 SRMC PS</name>
			<snippet></snippet>
			<description><![CDATA[<div class="googft-info-window">
<b>description:</b> police<br>
<b>name:</b> T15 SRMC PS
</div>]]></description>
			<styleUrl>#Style2-point-1-map</styleUrl>
			<ExtendedData/><Point><coordinates>80.160249,13.034199</coordinates></Point></Placemark>
		<Placemark>
			<name>Nandabakkam Police Station</name>
			<snippet></snippet>
			<description><![CDATA[<div class="googft-info-window">
<b>description:</b> police<br>
<b>name:</b> Nandabakkam Police Station
</div>]]></description>
			<styleUrl>#Style2-point-1-map</styleUrl>
			<ExtendedData/><Point><coordinates>80.189383,13.016054</coordinates></Point></Placemark>
		<Placemark>
			<name>Sadhashivanagar Police Station</name>
			<snippet></snippet>
			<description><![CDATA[<div class="googft-info-window">
<b>description:</b> police<br>
<b>name:</b> Sadhashivanagar Police Station
</div>]]></description>
			<styleUrl>#Style2-point-1-map</styleUrl>
			<ExtendedData/><Point><coordinates>77.57254,13.014925</coordinates></Point></Placemark>
		<Placemark>
			<name>KK Nagar PS</name>
			<snippet></snippet>
			<description><![CDATA[<div class="googft-info-window">
<b>description:</b> police<br>
<b>name:</b> KK Nagar PS
</div>]]></description>
			<styleUrl>#Style2-point-1-map</styleUrl>
			<ExtendedData/><Point><coordinates>80.205442,13.041511</coordinates></Point></Placemark>
		<Placemark>
			<name>N4 PS</name>
			<snippet></snippet>
			<description><![CDATA[<div class="googft-info-window">
<b>description:</b> police<br>
<b>name:</b> N4 PS
</div>]]></description>
			<styleUrl>#Style2-point-1-map</styleUrl>
			<ExtendedData/><Point><coordinates>80.29746,13.134541</coordinates></Point></Placemark>
		<Placemark>
			<snippet></snippet>
			<description><![CDATA[<div class="googft-info-window">
<b>description:</b> police<br>
<b>name:</b> 
</div>]]></description>
			<styleUrl>#Style2-point-1-map</styleUrl>
			<ExtendedData/><Point><coordinates>75.804635,30.888285</coordinates></Point></Placemark>
		<Placemark>
			<name>Kalpetta Police Station</name>
			<snippet></snippet>
			<description><![CDATA[<div class="googft-info-window">
<b>description:</b> police<br>
<b>name:</b> Kalpetta Police Station
</div>]]></description>
			<styleUrl>#Style2-point-1-map</styleUrl>
			<ExtendedData/><Point><coordinates>76.084565,11.603122</coordinates></Point></Placemark>
		<Placemark>
			<name>Vigilance and Security Office</name>
			<snippet></snippet>
			<description><![CDATA[<div class="googft-info-window">
<b>description:</b> police<br>
<b>name:</b> Vigilance and Security Office
</div>]]></description>
			<styleUrl>#Style2-point-1-map</styleUrl>
			<ExtendedData/><Point><coordinates>79.350822,13.679924</coordinates></Point></Placemark>
		<Placemark>
			<name>Yelahanka Police Station</name>
			<snippet></snippet>
			<description><![CDATA[<div class="googft-info-window">
<b>description:</b> police<br>
<b>name:</b> Yelahanka Police Station
</div>]]></description>
			<styleUrl>#Style2-point-1-map</styleUrl>
			<ExtendedData/><Point><coordinates>77.593888,13.095199</coordinates></Point></Placemark>
		<Placemark>
			<name>Virugambakkam Police Station</name>
			<snippet></snippet>
			<description><![CDATA[<div class="googft-info-window">
<b>description:</b> police<br>
<b>name:</b> Virugambakkam Police Station
</div>]]></description>
			<styleUrl>#Style2-point-1-map</styleUrl>
			<ExtendedData/><Point><coordinates>80.199256,13.049112</coordinates></Point></Placemark>
		<Placemark>
			<snippet></snippet>
			<description><![CDATA[<div class="googft-info-window">
<b>description:</b> police<br>
<b>name:</b> 
</div>]]></description>
			<styleUrl>#Style2-point-1-map</styleUrl>
			<ExtendedData/><Point><coordinates>80.267418,13.03694</coordinates></Point></Placemark>
		<Placemark>
			<name>Kothanur Police Station</name>
			<snippet></snippet>
			<description><![CDATA[<div class="googft-info-window">
<b>description:</b> police<br>
<b>name:</b> Kothanur Police Station
</div>]]></description>
			<styleUrl>#Style2-point-1-map</styleUrl>
			<ExtendedData/><Point><coordinates>77.651419,13.060191</coordinates></Point></Placemark>
		<Placemark>
			<name>Cubbon Park Police Station</name>
			<snippet></snippet>
			<description><![CDATA[<div class="googft-info-window">
<b>description:</b> police<br>
<b>name:</b> Cubbon Park Police Station
</div>]]></description>
			<styleUrl>#Style2-point-1-map</styleUrl>
			<ExtendedData/><Point><coordinates>77.598346,12.97624</coordinates></Point></Placemark>
		<Placemark>
			<name>Maleshwaram Police station</name>
			<snippet></snippet>
			<description><![CDATA[<div class="googft-info-window">
<b>description:</b> police<br>
<b>name:</b> Maleshwaram Police station
</div>]]></description>
			<styleUrl>#Style2-point-1-map</styleUrl>
			<ExtendedData/><Point><coordinates>77.56959,12.996681</coordinates></Point></Placemark>
		<Placemark>
			<name>Division No. 6</name>
			<snippet></snippet>
			<description><![CDATA[<div class="googft-info-window">
<b>description:</b> police<br>
<b>name:</b> Division No. 6
</div>]]></description>
			<styleUrl>#Style2-point-1-map</styleUrl>
			<ExtendedData/><Point><coordinates>75.871357,30.893979</coordinates></Point></Placemark>
		<Placemark>
			<name>DSP Industrial Area</name>
			<snippet></snippet>
			<description><![CDATA[<div class="googft-info-window">
<b>description:</b> police<br>
<b>name:</b> DSP Industrial Area
</div>]]></description>
			<styleUrl>#Style2-point-1-map</styleUrl>
			<ExtendedData/><Point><coordinates>75.88727,30.885582</coordinates></Point></Placemark>
		<Placemark>
			<name>Police Post Sherpur</name>
			<snippet></snippet>
			<description><![CDATA[<div class="googft-info-window">
<b>description:</b> police<br>
<b>name:</b> Police Post Sherpur
</div>]]></description>
			<styleUrl>#Style2-point-1-map</styleUrl>
			<ExtendedData/><Point><coordinates>75.887476,30.885398</coordinates></Point></Placemark>
		<Placemark>
			<name>Hazratganj Police Station</name>
			<snippet></snippet>
			<description><![CDATA[<div class="googft-info-window">
<b>description:</b> police<br>
<b>name:</b> Hazratganj Police Station
</div>]]></description>
			<styleUrl>#Style2-point-1-map</styleUrl>
			<ExtendedData/><Point><coordinates>80.946096,26.847189</coordinates></Point></Placemark>
		<Placemark>
			<snippet></snippet>
			<description><![CDATA[<div class="googft-info-window">
<b>description:</b> police<br>
<b>name:</b> 
</div>]]></description>
			<styleUrl>#Style2-point-1-map</styleUrl>
			<ExtendedData/><Point><coordinates>78.04183,30.48908</coordinates></Point></Placemark>
		<Placemark>
			<name>Electronics City Police Station</name>
			<snippet></snippet>
			<description><![CDATA[<div class="googft-info-window">
<b>description:</b> police<br>
<b>name:</b> Electronics City Police Station
</div>]]></description>
			<styleUrl>#Style2-point-1-map</styleUrl>
			<ExtendedData/><Point><coordinates>77.663139,12.839963</coordinates></Point></Placemark>
		<Placemark>
			<name>Model Town</name>
			<snippet></snippet>
			<description><![CDATA[<div class="googft-info-window">
<b>description:</b> police<br>
<b>name:</b> Model Town
</div>]]></description>
			<styleUrl>#Style2-point-1-map</styleUrl>
			<ExtendedData/><Point><coordinates>75.840396,30.888444</coordinates></Point></Placemark>
		<Placemark>
			<name>Karamana Police Station</name>
			<snippet></snippet>
			<description><![CDATA[<div class="googft-info-window">
<b>description:</b> police<br>
<b>name:</b> Karamana Police Station
</div>]]></description>
			<styleUrl>#Style2-point-1-map</styleUrl>
			<ExtendedData/><Point><coordinates>76.968378,8.481195</coordinates></Point></Placemark>
		<Placemark>
			<name>Police Station Bhondsi</name>
			<snippet></snippet>
			<description><![CDATA[<div class="googft-info-window">
<b>description:</b> police<br>
<b>name:</b> Police Station Bhondsi
</div>]]></description>
			<styleUrl>#Style2-point-1-map</styleUrl>
			<ExtendedData/><Point><coordinates>77.068134,28.344578</coordinates></Point></Placemark>
		<Placemark>
			<name>Police Station Sector 56</name>
			<snippet></snippet>
			<description><![CDATA[<div class="googft-info-window">
<b>description:</b> police<br>
<b>name:</b> Police Station Sector 56
</div>]]></description>
			<styleUrl>#Style2-point-1-map</styleUrl>
			<ExtendedData/><Point><coordinates>77.103151,28.424827</coordinates></Point></Placemark>
		<Placemark>
			<name>Basavangudi Police Station</name>
			<snippet></snippet>
			<description><![CDATA[<div class="googft-info-window">
<b>description:</b> police<br>
<b>name:</b> Basavangudi Police Station
</div>]]></description>
			<styleUrl>#Style2-point-1-map</styleUrl>
			<ExtendedData/><Point><coordinates>77.574151,12.942211</coordinates></Point></Placemark>
		<Placemark>
			<name>Thana Kundli</name>
			<snippet></snippet>
			<description><![CDATA[<div class="googft-info-window">
<b>description:</b> police<br>
<b>name:</b> Thana Kundli
</div>]]></description>
			<styleUrl>#Style2-point-1-map</styleUrl>
			<ExtendedData/><Point><coordinates>77.123353,28.863854</coordinates></Point></Placemark>
		<Placemark>
			<name>Murthal Police Station</name>
			<snippet></snippet>
			<description><![CDATA[<div class="googft-info-window">
<b>description:</b> police<br>
<b>name:</b> Murthal Police Station
</div>]]></description>
			<styleUrl>#Style2-point-1-map</styleUrl>
			<ExtendedData/><Point><coordinates>77.073202,29.026639</coordinates></Point></Placemark>
		<Placemark>
			<name>Jalahalli Police Station</name>
			<snippet></snippet>
			<description><![CDATA[<div class="googft-info-window">
<b>description:</b> police<br>
<b>name:</b> Jalahalli Police Station
</div>]]></description>
			<styleUrl>#Style2-point-1-map</styleUrl>
			<ExtendedData/><Point><coordinates>77.549567,13.048648</coordinates></Point></Placemark>
		<Placemark>
			<name>Basaveshwaranagar Police Station</name>
			<snippet></snippet>
			<description><![CDATA[<div class="googft-info-window">
<b>description:</b> police<br>
<b>name:</b> Basaveshwaranagar Police Station
</div>]]></description>
			<styleUrl>#Style2-point-1-map</styleUrl>
			<ExtendedData/><Point><coordinates>77.54257,12.985492</coordinates></Point></Placemark>
		<Placemark>
			<name>Holi Police Station</name>
			<snippet></snippet>
			<description><![CDATA[<div class="googft-info-window">
<b>description:</b> police<br>
<b>name:</b> Holi Police Station
</div>]]></description>
			<styleUrl>#Style2-point-1-map</styleUrl>
			<ExtendedData/><Point><coordinates>76.557704,32.326318</coordinates></Point></Placemark>
		<Placemark>
			<name>Police Post Jari</name>
			<snippet></snippet>
			<description><![CDATA[<div class="googft-info-window">
<b>description:</b> police<br>
<b>name:</b> Police Post Jari
</div>]]></description>
			<styleUrl>#Style2-point-1-map</styleUrl>
			<ExtendedData/><Point><coordinates>77.253742,32.002251</coordinates></Point></Placemark>
		<Placemark>
			<name>Police Aid Post dharuheda</name>
			<snippet></snippet>
			<description><![CDATA[<div class="googft-info-window">
<b>description:</b> police<br>
<b>name:</b> Police Aid Post dharuheda
</div>]]></description>
			<styleUrl>#Style2-point-1-map</styleUrl>
			<ExtendedData/><Point><coordinates>76.794717,28.21575</coordinates></Point></Placemark>
		<Placemark>
			<name>K R Police station</name>
			<snippet></snippet>
			<description><![CDATA[<div class="googft-info-window">
<b>description:</b> police<br>
<b>name:</b> K R Police station
</div>]]></description>
			<styleUrl>#Style2-point-1-map</styleUrl>
			<ExtendedData/><Point><coordinates>76.650538,12.29791</coordinates></Point></Placemark>
		<Placemark>
			<name>Laxmipuram Police Station</name>
			<snippet></snippet>
			<description><![CDATA[<div class="googft-info-window">
<b>description:</b> police<br>
<b>name:</b> Laxmipuram Police Station
</div>]]></description>
			<styleUrl>#Style2-point-1-map</styleUrl>
			<ExtendedData/><Point><coordinates>76.642824,12.297647</coordinates></Point></Placemark>
		<Placemark>
			<name>Security Office of Dalai Lama</name>
			<snippet></snippet>
			<description><![CDATA[<div class="googft-info-window">
<b>description:</b> police<br>
<b>name:</b> Security Office of Dalai Lama
</div>]]></description>
			<styleUrl>#Style2-point-1-map</styleUrl>
			<ExtendedData/><Point><coordinates>76.324533,32.238721</coordinates></Point></Placemark>
		<Placemark>
			<name>Kulgaon Police Station</name>
			<snippet></snippet>
			<description><![CDATA[<div class="googft-info-window">
<b>description:</b> police<br>
<b>name:</b> Kulgaon Police Station
</div>]]></description>
			<styleUrl>#Style2-point-1-map</styleUrl>
			<ExtendedData/><Point><coordinates>73.239707,19.157544</coordinates></Point></Placemark>
		<Placemark>
			<name>Shipra Police station</name>
			<snippet></snippet>
			<description><![CDATA[<div class="googft-info-window">
<b>description:</b> police<br>
<b>name:</b> Shipra Police station
</div>]]></description>
			<styleUrl>#Style2-point-1-map</styleUrl>
			<ExtendedData/><Point><coordinates>77.378263,28.637807</coordinates></Point></Placemark>
		<Placemark>
			<name>RT Nagar Police Station</name>
			<snippet></snippet>
			<description><![CDATA[<div class="googft-info-window">
<b>description:</b> police<br>
<b>name:</b> RT Nagar Police Station
</div>]]></description>
			<styleUrl>#Style2-point-1-map</styleUrl>
			<ExtendedData/><Point><coordinates>77.593108,13.02475</coordinates></Point></Placemark>
		<Placemark>
			<name>Sundernagar Colony Police Station</name>
			<snippet></snippet>
			<description><![CDATA[<div class="googft-info-window">
<b>description:</b> police<br>
<b>name:</b> Sundernagar Colony Police Station
</div>]]></description>
			<styleUrl>#Style2-point-1-map</styleUrl>
			<ExtendedData/><Point><coordinates>76.908409,31.531718</coordinates></Point></Placemark>
		<Placemark>
			<name>Police Station, Sundernagar</name>
			<snippet></snippet>
			<description><![CDATA[<div class="googft-info-window">
<b>description:</b> police<br>
<b>name:</b> Police Station, Sundernagar
</div>]]></description>
			<styleUrl>#Style2-point-1-map</styleUrl>
			<ExtendedData/><Point><coordinates>76.884334,31.515451</coordinates></Point></Placemark>
		<Placemark>
			<name>Chevayoor Police Station</name>
			<snippet></snippet>
			<description><![CDATA[<div class="googft-info-window">
<b>description:</b> police<br>
<b>name:</b> Chevayoor Police Station
</div>]]></description>
			<styleUrl>#Style2-point-1-map</styleUrl>
			<ExtendedData/><Point><coordinates>75.818051,11.292912</coordinates></Point></Placemark>
		<Placemark>
			<name>City Police control room</name>
			<snippet></snippet>
			<description><![CDATA[<div class="googft-info-window">
<b>description:</b> police<br>
<b>name:</b> City Police control room
</div>]]></description>
			<styleUrl>#Style2-point-1-map</styleUrl>
			<ExtendedData/><Point><coordinates>76.950074,8.498467</coordinates></Point></Placemark>
		<Placemark>
			<snippet></snippet>
			<description><![CDATA[<div class="googft-info-window">
<b>description:</b> police<br>
<b>name:</b> 
</div>]]></description>
			<styleUrl>#Style2-point-1-map</styleUrl>
			<ExtendedData/><Point><coordinates>88.530455,27.172915</coordinates></Point></Placemark>
		<Placemark>
			<snippet></snippet>
			<description><![CDATA[<div class="googft-info-window">
<b>description:</b> police<br>
<b>name:</b> 
</div>]]></description>
			<styleUrl>#Style2-point-1-map</styleUrl>
			<ExtendedData/><Point><coordinates>80.281059,13.108695</coordinates></Point></Placemark>
		<Placemark>
			<name>Lokmanya Tilak Road Police Station</name>
			<snippet></snippet>
			<description><![CDATA[<div class="googft-info-window">
<b>description:</b> police<br>
<b>name:</b> Lokmanya Tilak Road Police Station
</div>]]></description>
			<styleUrl>#Style2-point-1-map</styleUrl>
			<ExtendedData/><Point><coordinates>72.830332,18.945371</coordinates></Point></Placemark>
		<Placemark>
			<name>Azad Maidan Police Station</name>
			<snippet></snippet>
			<description><![CDATA[<div class="googft-info-window">
<b>description:</b> police<br>
<b>name:</b> Azad Maidan Police Station
</div>]]></description>
			<styleUrl>#Style2-point-1-map</styleUrl>
			<ExtendedData/><Point><coordinates>72.832973,18.941589</coordinates></Point></Placemark>
		<Placemark>
			<snippet></snippet>
			<description><![CDATA[<div class="googft-info-window">
<b>description:</b> police<br>
<b>name:</b> 
</div>]]></description>
			<styleUrl>#Style2-point-1-map</styleUrl>
			<ExtendedData/><Point><coordinates>75.425765,31.213687</coordinates></Point></Placemark>
		<Placemark>
			<name>commissioner office</name>
			<snippet></snippet>
			<description><![CDATA[<div class="googft-info-window">
<b>description:</b> police<br>
<b>name:</b> commissioner office
</div>]]></description>
			<styleUrl>#Style2-point-1-map</styleUrl>
			<ExtendedData/><Point><coordinates>78.479583,17.367421</coordinates></Point></Placemark>
		<Placemark>
			<snippet></snippet>
			<description><![CDATA[<div class="googft-info-window">
<b>description:</b> police<br>
<b>name:</b> 
</div>]]></description>
			<styleUrl>#Style2-point-1-map</styleUrl>
			<ExtendedData/><Point><coordinates>78.499903,17.365527</coordinates></Point></Placemark>
		<Placemark>
			<snippet></snippet>
			<description><![CDATA[<div class="googft-info-window">
<b>description:</b> police<br>
<b>name:</b> 
</div>]]></description>
			<styleUrl>#Style2-point-1-map</styleUrl>
			<ExtendedData/><Point><coordinates>78.482082,17.371447</coordinates></Point></Placemark>
		<Placemark>
			<name>Chaura Police Post</name>
			<snippet></snippet>
			<description><![CDATA[<div class="googft-info-window">
<b>description:</b> police<br>
<b>name:</b> Chaura Police Post
</div>]]></description>
			<styleUrl>#Style2-point-1-map</styleUrl>
			<ExtendedData/><Point><coordinates>77.842777,31.565019</coordinates></Point></Placemark>
		<Placemark>
			<name>Police Station Bhabhanagar</name>
			<snippet></snippet>
			<description><![CDATA[<div class="googft-info-window">
<b>description:</b> police<br>
<b>name:</b> Police Station Bhabhanagar
</div>]]></description>
			<styleUrl>#Style2-point-1-map</styleUrl>
			<ExtendedData/><Point><coordinates>77.934655,31.565402</coordinates></Point></Placemark>
		<Placemark>
			<name>1 Town</name>
			<snippet></snippet>
			<description><![CDATA[<div class="googft-info-window">
<b>description:</b> police<br>
<b>name:</b> 1 Town
</div>]]></description>
			<styleUrl>#Style2-point-1-map</styleUrl>
			<ExtendedData/><Point><coordinates>80.139904,17.24898</coordinates></Point></Placemark>
		<Placemark>
			<name>Nallakunta Police Station</name>
			<snippet></snippet>
			<description><![CDATA[<div class="googft-info-window">
<b>description:</b> police<br>
<b>name:</b> Nallakunta Police Station
</div>]]></description>
			<styleUrl>#Style2-point-1-map</styleUrl>
			<ExtendedData/><Point><coordinates>78.513311,17.407697</coordinates></Point></Placemark>
		<Placemark>
			<name>Jadavpur Police Station</name>
			<snippet></snippet>
			<description><![CDATA[<div class="googft-info-window">
<b>description:</b> police<br>
<b>name:</b> Jadavpur Police Station
</div>]]></description>
			<styleUrl>#Style2-point-1-map</styleUrl>
			<ExtendedData/><Point><coordinates>88.367729,22.502768</coordinates></Point></Placemark>
		<Placemark>
			<name>Fort Cochi police station</name>
			<snippet></snippet>
			<description><![CDATA[<div class="googft-info-window">
<b>description:</b> police<br>
<b>name:</b> Fort Cochi police station
</div>]]></description>
			<styleUrl>#Style2-point-1-map</styleUrl>
			<ExtendedData/><Point><coordinates>76.244119,9.967165</coordinates></Point></Placemark>
		<Placemark>
			<name>Commisioner of Police</name>
			<snippet></snippet>
			<description><![CDATA[<div class="googft-info-window">
<b>description:</b> police<br>
<b>name:</b> Commisioner of Police
</div>]]></description>
			<styleUrl>#Style2-point-1-map</styleUrl>
			<ExtendedData/><Point><coordinates>77.594563,12.985025</coordinates></Point></Placemark>
		<Placemark>
			<name>Police Headquarters</name>
			<snippet></snippet>
			<description><![CDATA[<div class="googft-info-window">
<b>description:</b> police<br>
<b>name:</b> Police Headquarters
</div>]]></description>
			<styleUrl>#Style2-point-1-map</styleUrl>
			<ExtendedData/><Point><coordinates>77.587762,12.969537</coordinates></Point></Placemark>
		<Placemark>
			<name>Gokhale Road Police Quarters</name>
			<snippet></snippet>
			<description><![CDATA[<div class="googft-info-window">
<b>description:</b> police<br>
<b>name:</b> Gokhale Road Police Quarters
</div>]]></description>
			<styleUrl>#Style2-point-1-map</styleUrl>
			<ExtendedData/><Point><coordinates>88.344409,22.539338</coordinates></Point></Placemark>
		<Placemark>
			<name>Railway Police station</name>
			<snippet></snippet>
			<description><![CDATA[<div class="googft-info-window">
<b>description:</b> police<br>
<b>name:</b> Railway Police station
</div>]]></description>
			<styleUrl>#Style2-point-1-map</styleUrl>
			<ExtendedData/><Point><coordinates>80.138901,17.249763</coordinates></Point></Placemark>
		<Placemark>
			<name>Maharashtra Police Headquarters</name>
			<snippet></snippet>
			<description><![CDATA[<div class="googft-info-window">
<b>description:</b> police<br>
<b>name:</b> Maharashtra Police Headquarters
</div>]]></description>
			<styleUrl>#Style2-point-1-map</styleUrl>
			<ExtendedData/><Point><coordinates>72.833445,18.925091</coordinates></Point></Placemark>
		<Placemark>
			<snippet></snippet>
			<description><![CDATA[<div class="googft-info-window">
<b>description:</b> police<br>
<b>name:</b> 
</div>]]></description>
			<styleUrl>#Style2-point-1-map</styleUrl>
			<ExtendedData/><Point><coordinates>74.451167,17.592309</coordinates></Point></Placemark>
		<Placemark>
			<snippet></snippet>
			<description><![CDATA[<div class="googft-info-window">
<b>description:</b> police<br>
<b>name:</b> 
</div>]]></description>
			<styleUrl>#Style2-point-1-map</styleUrl>
			<ExtendedData/><Point><coordinates>73.87889,18.524308</coordinates></Point></Placemark>
		<Placemark>
			<name>S.J. Park Police</name>
			<snippet></snippet>
			<description><![CDATA[<div class="googft-info-window">
<b>description:</b> police<br>
<b>name:</b> S.J. Park Police
</div>]]></description>
			<styleUrl>#Style2-point-1-map</styleUrl>
			<ExtendedData/><Point><coordinates>77.583162,12.960964</coordinates></Point></Placemark>
		<Placemark>
			<name>Police Booth</name>
			<snippet></snippet>
			<description><![CDATA[<div class="googft-info-window">
<b>description:</b> police<br>
<b>name:</b> Police Booth
</div>]]></description>
			<styleUrl>#Style2-point-1-map</styleUrl>
			<ExtendedData/><Point><coordinates>80.192342,13.073748</coordinates></Point></Placemark>
		<Placemark>
			<name>Police Booth</name>
			<snippet></snippet>
			<description><![CDATA[<div class="googft-info-window">
<b>description:</b> police<br>
<b>name:</b> Police Booth
</div>]]></description>
			<styleUrl>#Style2-point-1-map</styleUrl>
			<ExtendedData/><Point><coordinates>80.193571,13.065691</coordinates></Point></Placemark>
		<Placemark>
			<name>Tilaknagar Police Station</name>
			<snippet></snippet>
			<description><![CDATA[<div class="googft-info-window">
<b>description:</b> police<br>
<b>name:</b> Tilaknagar Police Station
</div>]]></description>
			<styleUrl>#Style2-point-1-map</styleUrl>
			<ExtendedData/><Point><coordinates>77.590569,12.928367</coordinates></Point></Placemark>
		<Placemark>
			<name>Tardeo Police Station</name>
			<snippet></snippet>
			<description><![CDATA[<div class="googft-info-window">
<b>description:</b> police<br>
<b>name:</b> Tardeo Police Station
</div>]]></description>
			<styleUrl>#Style2-point-1-map</styleUrl>
			<ExtendedData/><Point><coordinates>72.814174,18.96945</coordinates></Point></Placemark>
		<Placemark>
			<snippet></snippet>
			<description><![CDATA[<div class="googft-info-window">
<b>description:</b> police<br>
<b>name:</b> 
</div>]]></description>
			<styleUrl>#Style2-point-1-map</styleUrl>
			<ExtendedData/><Point><coordinates>78.549373,17.426532</coordinates></Point></Placemark>
		<Placemark>
			<name>Marangattupilly Police Station</name>
			<snippet></snippet>
			<description><![CDATA[<div class="googft-info-window">
<b>description:</b> police<br>
<b>name:</b> Marangattupilly Police Station
</div>]]></description>
			<styleUrl>#Style2-point-1-map</styleUrl>
			<ExtendedData/><Point><coordinates>76.60944,9.747421</coordinates></Point></Placemark>
		<Placemark>
			<name>Nagpada Polic Station</name>
			<snippet></snippet>
			<description><![CDATA[<div class="googft-info-window">
<b>description:</b> police<br>
<b>name:</b> Nagpada Polic Station
</div>]]></description>
			<styleUrl>#Style2-point-1-map</styleUrl>
			<ExtendedData/><Point><coordinates>72.829415,18.966968</coordinates></Point></Placemark>
		<Placemark>
			<name>Police Station Sultanpur</name>
			<snippet></snippet>
			<description><![CDATA[<div class="googft-info-window">
<b>description:</b> police<br>
<b>name:</b> Police Station Sultanpur
</div>]]></description>
			<styleUrl>#Style2-point-1-map</styleUrl>
			<ExtendedData/><Point><coordinates>76.117535,32.560311</coordinates></Point></Placemark>
		<Placemark>
			<name>Traffic police</name>
			<snippet></snippet>
			<description><![CDATA[<div class="googft-info-window">
<b>description:</b> police<br>
<b>name:</b> Traffic police
</div>]]></description>
			<styleUrl>#Style2-point-1-map</styleUrl>
			<ExtendedData/><Point><coordinates>80.143038,17.25169</coordinates></Point></Placemark>
		<Placemark>
			<name>Police Station</name>
			<snippet></snippet>
			<description><![CDATA[<div class="googft-info-window">
<b>description:</b> police<br>
<b>name:</b> Police Station
</div>]]></description>
			<styleUrl>#Style2-point-1-map</styleUrl>
			<ExtendedData/><Point><coordinates>77.586581,11.277733</coordinates></Point></Placemark>
		<Placemark>
			<name>Saifabad Police Station</name>
			<snippet></snippet>
			<description><![CDATA[<div class="googft-info-window">
<b>description:</b> police<br>
<b>name:</b> Saifabad Police Station
</div>]]></description>
			<styleUrl>#Style2-point-1-map</styleUrl>
			<ExtendedData/><Point><coordinates>78.464608,17.411087</coordinates></Point></Placemark>
		<Placemark>
			<name>Vilappilsala Police Station</name>
			<snippet></snippet>
			<description><![CDATA[<div class="googft-info-window">
<b>description:</b> police<br>
<b>name:</b> Vilappilsala Police Station
</div>]]></description>
			<styleUrl>#Style2-point-1-map</styleUrl>
			<ExtendedData/><Point><coordinates>77.040716,8.524688</coordinates></Point></Placemark>
		<Placemark>
			<name>Velachery</name>
			<snippet></snippet>
			<description><![CDATA[<div class="googft-info-window">
<b>description:</b> police<br>
<b>name:</b> Velachery
</div>]]></description>
			<styleUrl>#Style2-point-1-map</styleUrl>
			<ExtendedData/><Point><coordinates>80.220929,12.980828</coordinates></Point></Placemark>
		<Placemark>
			<name>Satara Rural Police Station</name>
			<snippet></snippet>
			<description><![CDATA[<div class="googft-info-window">
<b>description:</b> police<br>
<b>name:</b> Satara Rural Police Station
</div>]]></description>
			<styleUrl>#Style2-point-1-map</styleUrl>
			<ExtendedData/><Point><coordinates>73.990781,17.687764</coordinates></Point></Placemark>
		<Placemark>
			<name>Vijay Nagar Police Station</name>
			<snippet></snippet>
			<description><![CDATA[<div class="googft-info-window">
<b>description:</b> police<br>
<b>name:</b> Vijay Nagar Police Station
</div>]]></description>
			<styleUrl>#Style2-point-1-map</styleUrl>
			<ExtendedData/><Point><coordinates>75.895166,22.75161</coordinates></Point></Placemark>
		<Placemark>
			<name>Bawana Police station</name>
			<snippet></snippet>
			<description><![CDATA[<div class="googft-info-window">
<b>description:</b> police<br>
<b>name:</b> Bawana Police station
</div>]]></description>
			<styleUrl>#Style2-point-1-map</styleUrl>
			<ExtendedData/><Point><coordinates>77.025642,28.805512</coordinates></Point></Placemark>
		<Placemark>
			<name>Kaza Police Station</name>
			<snippet></snippet>
			<description><![CDATA[<div class="googft-info-window">
<b>description:</b> police<br>
<b>name:</b> Kaza Police Station
</div>]]></description>
			<styleUrl>#Style2-point-1-map</styleUrl>
			<ExtendedData/><Point><coordinates>78.067014,32.228112</coordinates></Point></Placemark>
		<Placemark>
			<name>Banaswadi Police Station</name>
			<snippet></snippet>
			<description><![CDATA[<div class="googft-info-window">
<b>description:</b> police<br>
<b>name:</b> Banaswadi Police Station
</div>]]></description>
			<styleUrl>#Style2-point-1-map</styleUrl>
			<ExtendedData/><Point><coordinates>77.640103,13.01979</coordinates></Point></Placemark>
		<Placemark>
			<name>Gubbi Police Station</name>
			<snippet></snippet>
			<description><![CDATA[<div class="googft-info-window">
<b>description:</b> police<br>
<b>name:</b> Gubbi Police Station
</div>]]></description>
			<styleUrl>#Style2-point-1-map</styleUrl>
			<ExtendedData/><Point><coordinates>76.948541,13.309456</coordinates></Point></Placemark>
		<Placemark>
			<snippet></snippet>
			<description><![CDATA[<div class="googft-info-window">
<b>description:</b> police<br>
<b>name:</b> 
</div>]]></description>
			<styleUrl>#Style2-point-1-map</styleUrl>
			<ExtendedData/><Point><coordinates>73.87081,18.523933</coordinates></Point></Placemark>
		<Placemark>
			<name>Bhanodi Police Post</name>
			<snippet></snippet>
			<description><![CDATA[<div class="googft-info-window">
<b>description:</b> police<br>
<b>name:</b> Bhanodi Police Post
</div>]]></description>
			<styleUrl>#Style2-point-1-map</styleUrl>
			<ExtendedData/><Point><coordinates>76.180578,32.962258</coordinates></Point></Placemark>
		<Placemark>
			<name>Panniankara Police Station</name>
			<snippet></snippet>
			<description><![CDATA[<div class="googft-info-window">
<b>description:</b> police<br>
<b>name:</b> Panniankara Police Station
</div>]]></description>
			<styleUrl>#Style2-point-1-map</styleUrl>
			<ExtendedData/><Point><coordinates>75.791689,11.226804</coordinates></Point></Placemark>
		<Placemark>
			<name>PS Jodha</name>
			<snippet></snippet>
			<description><![CDATA[<div class="googft-info-window">
<b>description:</b> police<br>
<b>name:</b> PS Jodha
</div>]]></description>
			<styleUrl>#Style2-point-1-map</styleUrl>
			<ExtendedData/><Point><coordinates>75.750056,30.793637</coordinates></Point></Placemark>
		<Placemark>
			<name>Ramapuram Police Station</name>
			<snippet></snippet>
			<description><![CDATA[<div class="googft-info-window">
<b>description:</b> police<br>
<b>name:</b> Ramapuram Police Station
</div>]]></description>
			<styleUrl>#Style2-point-1-map</styleUrl>
			<ExtendedData/><Point><coordinates>76.658596,9.799605</coordinates></Point></Placemark>
		<Placemark>
			<snippet></snippet>
			<description><![CDATA[<div class="googft-info-window">
<b>description:</b> police<br>
<b>name:</b> 
</div>]]></description>
			<styleUrl>#Style2-point-1-map</styleUrl>
			<ExtendedData/><Point><coordinates>76.968182,10.995271</coordinates></Point></Placemark>
		<Placemark>
			<snippet></snippet>
			<description><![CDATA[<div class="googft-info-window">
<b>description:</b> police<br>
<b>name:</b> 
</div>]]></description>
			<styleUrl>#Style2-point-1-map</styleUrl>
			<ExtendedData/><Point><coordinates>76.967781,10.999002</coordinates></Point></Placemark>
		<Placemark>
			<name>Div No. 1</name>
			<snippet></snippet>
			<description><![CDATA[<div class="googft-info-window">
<b>description:</b> police<br>
<b>name:</b> Div No. 1
</div>]]></description>
			<styleUrl>#Style2-point-1-map</styleUrl>
			<ExtendedData/><Point><coordinates>75.850855,30.916791</coordinates></Point></Placemark>
		<Placemark>
			<name>Police Station, Udaipur</name>
			<snippet></snippet>
			<description><![CDATA[<div class="googft-info-window">
<b>description:</b> police<br>
<b>name:</b> Police Station, Udaipur
</div>]]></description>
			<styleUrl>#Style2-point-1-map</styleUrl>
			<ExtendedData/><Point><coordinates>76.667878,32.723379</coordinates></Point></Placemark>
		<Placemark>
			<name>Nadakkave Police Station</name>
			<snippet></snippet>
			<description><![CDATA[<div class="googft-info-window">
<b>description:</b> police<br>
<b>name:</b> Nadakkave Police Station
</div>]]></description>
			<styleUrl>#Style2-point-1-map</styleUrl>
			<ExtendedData/><Point><coordinates>75.775418,11.271709</coordinates></Point></Placemark>
		<Placemark>
			<name>Begumpet Police Station</name>
			<snippet></snippet>
			<description><![CDATA[<div class="googft-info-window">
<b>description:</b> police<br>
<b>name:</b> Begumpet Police Station
</div>]]></description>
			<styleUrl>#Style2-point-1-map</styleUrl>
			<ExtendedData/><Point><coordinates>78.474784,17.443961</coordinates></Point></Placemark>
		<Placemark>
			<name>Ramamurthinagar Police Station</name>
			<snippet></snippet>
			<description><![CDATA[<div class="googft-info-window">
<b>description:</b> police<br>
<b>name:</b> Ramamurthinagar Police Station
</div>]]></description>
			<styleUrl>#Style2-point-1-map</styleUrl>
			<ExtendedData/><Point><coordinates>77.667717,13.012184</coordinates></Point></Placemark>
		<Placemark>
			<name>HAL Police Station</name>
			<snippet></snippet>
			<description><![CDATA[<div class="googft-info-window">
<b>description:</b> police<br>
<b>name:</b> HAL Police Station
</div>]]></description>
			<styleUrl>#Style2-point-1-map</styleUrl>
			<ExtendedData/><Point><coordinates>77.682796,12.955083</coordinates></Point></Placemark>
		<Placemark>
			<name>Indira Nagar Police Station</name>
			<snippet></snippet>
			<description><![CDATA[<div class="googft-info-window">
<b>description:</b> police<br>
<b>name:</b> Indira Nagar Police Station
</div>]]></description>
			<styleUrl>#Style2-point-1-map</styleUrl>
			<ExtendedData/><Point><coordinates>77.638411,12.983019</coordinates></Point></Placemark>
		<Placemark>
			<name>Police Station Manali</name>
			<snippet></snippet>
			<description><![CDATA[<div class="googft-info-window">
<b>description:</b> police<br>
<b>name:</b> Police Station Manali
</div>]]></description>
			<styleUrl>#Style2-point-1-map</styleUrl>
			<ExtendedData/><Point><coordinates>77.186319,32.236893</coordinates></Point></Placemark>
		<Placemark>
			<name>Null Bazaar Police Chowkie</name>
			<snippet></snippet>
			<description><![CDATA[<div class="googft-info-window">
<b>description:</b> police<br>
<b>name:</b> Null Bazaar Police Chowkie
</div>]]></description>
			<styleUrl>#Style2-point-1-map</styleUrl>
			<ExtendedData/><Point><coordinates>72.8291,18.956928</coordinates></Point></Placemark>
		<Placemark>
			<name>Pydhoni Police Station</name>
			<snippet></snippet>
			<description><![CDATA[<div class="googft-info-window">
<b>description:</b> police<br>
<b>name:</b> Pydhoni Police Station
</div>]]></description>
			<styleUrl>#Style2-point-1-map</styleUrl>
			<ExtendedData/><Point><coordinates>72.832021,18.954172</coordinates></Point></Placemark>
		<Placemark>
			<name>Dongri Police Station</name>
			<snippet></snippet>
			<description><![CDATA[<div class="googft-info-window">
<b>description:</b> police<br>
<b>name:</b> Dongri Police Station
</div>]]></description>
			<styleUrl>#Style2-point-1-map</styleUrl>
			<ExtendedData/><Point><coordinates>72.839049,18.96214</coordinates></Point></Placemark>
		<Placemark>
			<name>Sir JJ Marg Police Station</name>
			<snippet></snippet>
			<description><![CDATA[<div class="googft-info-window">
<b>description:</b> police<br>
<b>name:</b> Sir JJ Marg Police Station
</div>]]></description>
			<styleUrl>#Style2-point-1-map</styleUrl>
			<ExtendedData/><Point><coordinates>72.832291,18.963006</coordinates></Point></Placemark>
		<Placemark>
			<name>Colaba Police Station</name>
			<snippet></snippet>
			<description><![CDATA[<div class="googft-info-window">
<b>description:</b> police<br>
<b>name:</b> Colaba Police Station
</div>]]></description>
			<styleUrl>#Style2-point-1-map</styleUrl>
			<ExtendedData/><Point><coordinates>72.830992,18.922209</coordinates></Point></Placemark>
		<Placemark>
			<name>Ploice Lines</name>
			<snippet></snippet>
			<description><![CDATA[<div class="googft-info-window">
<b>description:</b> police<br>
<b>name:</b> Ploice Lines
</div>]]></description>
			<styleUrl>#Style2-point-1-map</styleUrl>
			<ExtendedData/><Point><coordinates>75.532026,30.361658</coordinates></Point></Placemark>
		<Placemark>
			<name>Karkhana Police Station</name>
			<snippet></snippet>
			<description><![CDATA[<div class="googft-info-window">
<b>description:</b> police<br>
<b>name:</b> Karkhana Police Station
</div>]]></description>
			<styleUrl>#Style2-point-1-map</styleUrl>
			<ExtendedData/><Point><coordinates>78.500636,17.461992</coordinates></Point></Placemark>
		<Placemark>
			<name>Begumpet Traffic Police</name>
			<snippet></snippet>
			<description><![CDATA[<div class="googft-info-window">
<b>description:</b> police<br>
<b>name:</b> Begumpet Traffic Police
</div>]]></description>
			<styleUrl>#Style2-point-1-map</styleUrl>
			<ExtendedData/><Point><coordinates>78.479091,17.44363</coordinates></Point></Placemark>
		<Placemark>
			<name>Police Chownki Merado Thana Sadar</name>
			<snippet></snippet>
			<description><![CDATA[<div class="googft-info-window">
<b>description:</b> police<br>
<b>name:</b> Police Chownki Merado Thana Sadar
</div>]]></description>
			<styleUrl>#Style2-point-1-map</styleUrl>
			<ExtendedData/><Point><coordinates>75.85222,30.863423</coordinates></Point></Placemark>
		<Placemark>
			<name>police station</name>
			<snippet></snippet>
			<description><![CDATA[<div class="googft-info-window">
<b>description:</b> police<br>
<b>name:</b> police station
</div>]]></description>
			<styleUrl>#Style2-point-1-map</styleUrl>
			<ExtendedData/><Point><coordinates>75.840306,30.872448</coordinates></Point></Placemark>
		<Placemark>
			<name>Police station</name>
			<snippet></snippet>
			<description><![CDATA[<div class="googft-info-window">
<b>description:</b> police<br>
<b>name:</b> Police station
</div>]]></description>
			<styleUrl>#Style2-point-1-map</styleUrl>
			<ExtendedData/><Point><coordinates>75.870081,30.866248</coordinates></Point></Placemark>
		<Placemark>
			<name>S.S.P Office</name>
			<snippet></snippet>
			<description><![CDATA[<div class="googft-info-window">
<b>description:</b> police<br>
<b>name:</b> S.S.P Office
</div>]]></description>
			<styleUrl>#Style2-point-1-map</styleUrl>
			<ExtendedData/><Point><coordinates>75.536628,30.372156</coordinates></Point></Placemark>
		<Placemark>
			<snippet></snippet>
			<description><![CDATA[<div class="googft-info-window">
<b>description:</b> police<br>
<b>name:</b> 
</div>]]></description>
			<styleUrl>#Style2-point-1-map</styleUrl>
			<ExtendedData/><Point><coordinates>83.281293,17.734802</coordinates></Point></Placemark>
		<Placemark>
			<snippet></snippet>
			<description><![CDATA[<div class="googft-info-window">
<b>description:</b> police<br>
<b>name:</b> 
</div>]]></description>
			<styleUrl>#Style2-point-1-map</styleUrl>
			<ExtendedData/><Point><coordinates>78.464918,17.422316</coordinates></Point></Placemark>
		<Placemark>
			<name>Police Station DABA(URBAN)</name>
			<snippet></snippet>
			<description><![CDATA[<div class="googft-info-window">
<b>description:</b> police<br>
<b>name:</b> Police Station DABA(URBAN)
</div>]]></description>
			<styleUrl>#Style2-point-1-map</styleUrl>
			<ExtendedData/><Point><coordinates>75.885933,30.867318</coordinates></Point></Placemark>
		<Placemark>
			<name>Police Booth</name>
			<snippet></snippet>
			<description><![CDATA[<div class="googft-info-window">
<b>description:</b> police<br>
<b>name:</b> Police Booth
</div>]]></description>
			<styleUrl>#Style2-point-1-map</styleUrl>
			<ExtendedData/><Point><coordinates>80.186216,13.044732</coordinates></Point></Placemark>
		<Placemark>
			<name>Three Town police station</name>
			<snippet></snippet>
			<description><![CDATA[<div class="googft-info-window">
<b>description:</b> police<br>
<b>name:</b> Three Town police station
</div>]]></description>
			<styleUrl>#Style2-point-1-map</styleUrl>
			<ExtendedData/><Point><coordinates>80.642933,16.238144</coordinates></Point></Placemark>
		<Placemark>
			<name>Jeevan Bhima Nagar Police Station</name>
			<snippet></snippet>
			<description><![CDATA[<div class="googft-info-window">
<b>description:</b> police<br>
<b>name:</b> Jeevan Bhima Nagar Police Station
</div>]]></description>
			<styleUrl>#Style2-point-1-map</styleUrl>
			<ExtendedData/><Point><coordinates>77.655694,12.967771</coordinates></Point></Placemark>
		<Placemark>
			<name>Chanakyapuri</name>
			<snippet></snippet>
			<description><![CDATA[<div class="googft-info-window">
<b>description:</b> police<br>
<b>name:</b> Chanakyapuri
</div>]]></description>
			<styleUrl>#Style2-point-1-map</styleUrl>
			<ExtendedData/><Point><coordinates>77.195973,28.60283</coordinates></Point></Placemark>
		<Placemark>
			<name>Mico Layout Police Station</name>
			<snippet></snippet>
			<description><![CDATA[<div class="googft-info-window">
<b>description:</b> police<br>
<b>name:</b> Mico Layout Police Station
</div>]]></description>
			<styleUrl>#Style2-point-1-map</styleUrl>
			<ExtendedData/><Point><coordinates>77.610565,12.908637</coordinates></Point></Placemark>
		<Placemark>
			<name>E6</name>
			<snippet></snippet>
			<description><![CDATA[<div class="googft-info-window">
<b>description:</b> police<br>
<b>name:</b> E6
</div>]]></description>
			<styleUrl>#Style2-point-1-map</styleUrl>
			<ExtendedData/><Point><coordinates>80.262509,13.271806</coordinates></Point></Placemark>
		<Placemark>
			<name>Girinagar Police Station</name>
			<snippet></snippet>
			<description><![CDATA[<div class="googft-info-window">
<b>description:</b> police<br>
<b>name:</b> Girinagar Police Station
</div>]]></description>
			<styleUrl>#Style2-point-1-map</styleUrl>
			<ExtendedData/><Point><coordinates>77.543968,12.935917</coordinates></Point></Placemark>
		<Placemark>
			<name>Chintadripet</name>
			<snippet></snippet>
			<description><![CDATA[<div class="googft-info-window">
<b>description:</b> police<br>
<b>name:</b> Chintadripet
</div>]]></description>
			<styleUrl>#Style2-point-1-map</styleUrl>
			<ExtendedData/><Point><coordinates>80.272504,13.074909</coordinates></Point></Placemark>
		<Placemark>
			<name>Sanjaynagar Police station</name>
			<snippet></snippet>
			<description><![CDATA[<div class="googft-info-window">
<b>description:</b> police<br>
<b>name:</b> Sanjaynagar Police station
</div>]]></description>
			<styleUrl>#Style2-point-1-map</styleUrl>
			<ExtendedData/><Point><coordinates>77.575898,13.03356</coordinates></Point></Placemark>
		<Placemark>
			<snippet></snippet>
			<description><![CDATA[<div class="googft-info-window">
<b>description:</b> police<br>
<b>name:</b> 
</div>]]></description>
			<styleUrl>#Style2-point-1-map</styleUrl>
			<ExtendedData/><Point><coordinates>95.315988,27.354092</coordinates></Point></Placemark>
		<Placemark>
			<name>Hampi Traffic Polic</name>
			<snippet></snippet>
			<description><![CDATA[<div class="googft-info-window">
<b>description:</b> police<br>
<b>name:</b> Hampi Traffic Polic
</div>]]></description>
			<styleUrl>#Style2-point-1-map</styleUrl>
			<ExtendedData/><Point><coordinates>76.466607,15.334019</coordinates></Point></Placemark>
		<Placemark>
			<name>Hampi PS</name>
			<snippet></snippet>
			<description><![CDATA[<div class="googft-info-window">
<b>description:</b> police<br>
<b>name:</b> Hampi PS
</div>]]></description>
			<styleUrl>#Style2-point-1-map</styleUrl>
			<ExtendedData/><Point><coordinates>76.466181,15.334111</coordinates></Point></Placemark>
		<Placemark>
			<snippet></snippet>
			<description><![CDATA[<div class="googft-info-window">
<b>description:</b> police<br>
<b>name:</b> 
</div>]]></description>
			<styleUrl>#Style2-point-1-map</styleUrl>
			<ExtendedData/><Point><coordinates>94.915107,27.184343</coordinates></Point></Placemark>
		<Placemark>
			<name>Police Station</name>
			<snippet></snippet>
			<description><![CDATA[<div class="googft-info-window">
<b>description:</b> police<br>
<b>name:</b> Police Station
</div>]]></description>
			<styleUrl>#Style2-point-1-map</styleUrl>
			<ExtendedData/><Point><coordinates>80.125796,12.96928</coordinates></Point></Placemark>
		<Placemark>
			<name>Vadapalani Police station</name>
			<snippet></snippet>
			<description><![CDATA[<div class="googft-info-window">
<b>description:</b> police<br>
<b>name:</b> Vadapalani Police station
</div>]]></description>
			<styleUrl>#Style2-point-1-map</styleUrl>
			<ExtendedData/><Point><coordinates>80.211732,13.049673</coordinates></Point></Placemark>
		<Placemark>
			<name>Aarey Police Station</name>
			<snippet></snippet>
			<description><![CDATA[<div class="googft-info-window">
<b>description:</b> police<br>
<b>name:</b> Aarey Police Station
</div>]]></description>
			<styleUrl>#Style2-point-1-map</styleUrl>
			<ExtendedData/><Point><coordinates>72.854382,19.166485</coordinates></Point></Placemark>
		<Placemark>
			<name>Goregaon (E) Police Station</name>
			<snippet></snippet>
			<description><![CDATA[<div class="googft-info-window">
<b>description:</b> police<br>
<b>name:</b> Goregaon (E) Police Station
</div>]]></description>
			<styleUrl>#Style2-point-1-map</styleUrl>
			<ExtendedData/><Point><coordinates>72.857676,19.155874</coordinates></Point></Placemark>
		<Placemark>
			<name>Police Station Dornakal</name>
			<snippet></snippet>
			<description><![CDATA[<div class="googft-info-window">
<b>description:</b> police<br>
<b>name:</b> Police Station Dornakal
</div>]]></description>
			<styleUrl>#Style2-point-1-map</styleUrl>
			<ExtendedData/><Point><coordinates>80.151753,17.444853</coordinates></Point></Placemark>
		<Placemark>
			<name>Central Crime Station</name>
			<snippet></snippet>
			<description><![CDATA[<div class="googft-info-window">
<b>description:</b> police<br>
<b>name:</b> Central Crime Station
</div>]]></description>
			<styleUrl>#Style2-point-1-map</styleUrl>
			<ExtendedData/><Point><coordinates>80.140851,17.243395</coordinates></Point></Placemark>
		<Placemark>
			<name>Kidangoor Police Station</name>
			<snippet></snippet>
			<description><![CDATA[<div class="googft-info-window">
<b>description:</b> police<br>
<b>name:</b> Kidangoor Police Station
</div>]]></description>
			<styleUrl>#Style2-point-1-map</styleUrl>
			<ExtendedData/><Point><coordinates>76.611145,9.685054</coordinates></Point></Placemark>
		<Placemark>
			<name>Ram Bagh Police Station</name>
			<snippet></snippet>
			<description><![CDATA[<div class="googft-info-window">
<b>description:</b> police<br>
<b>name:</b> Ram Bagh Police Station
</div>]]></description>
			<styleUrl>#Style2-point-1-map</styleUrl>
			<ExtendedData/><Point><coordinates>74.877801,31.630446</coordinates></Point></Placemark>
		<Placemark>
			<name>Police Lines</name>
			<snippet></snippet>
			<description><![CDATA[<div class="googft-info-window">
<b>description:</b> police<br>
<b>name:</b> Police Lines
</div>]]></description>
			<styleUrl>#Style2-point-1-map</styleUrl>
			<ExtendedData/><Point><coordinates>77.16379,31.109083</coordinates></Point></Placemark>
		<Placemark>
			<name>Shalimar Bagh Police Station</name>
			<snippet></snippet>
			<description><![CDATA[<div class="googft-info-window">
<b>description:</b> police<br>
<b>name:</b> Shalimar Bagh Police Station
</div>]]></description>
			<styleUrl>#Style2-point-1-map</styleUrl>
			<ExtendedData/><Point><coordinates>77.157137,28.717092</coordinates></Point></Placemark>
		<Placemark>
			<name>Tinsukia Police Station</name>
			<snippet></snippet>
			<description><![CDATA[<div class="googft-info-window">
<b>description:</b> police<br>
<b>name:</b> Tinsukia Police Station
</div>]]></description>
			<styleUrl>#Style2-point-1-map</styleUrl>
			<ExtendedData/><Point><coordinates>95.356912,27.487906</coordinates></Point></Placemark>
		<Placemark>
			<name>Ramapuram Police Station</name>
			<snippet></snippet>
			<description><![CDATA[<div class="googft-info-window">
<b>description:</b> police<br>
<b>name:</b> Ramapuram Police Station
</div>]]></description>
			<styleUrl>#Style2-point-1-map</styleUrl>
			<ExtendedData/><Point><coordinates>80.179007,13.031774</coordinates></Point></Placemark>
		<Placemark>
			<name>Palwancha Town and Rural</name>
			<snippet></snippet>
			<description><![CDATA[<div class="googft-info-window">
<b>description:</b> police<br>
<b>name:</b> Palwancha Town and Rural
</div>]]></description>
			<styleUrl>#Style2-point-1-map</styleUrl>
			<ExtendedData/><Point><coordinates>80.705006,17.598778</coordinates></Point></Placemark>
		<Placemark>
			<snippet></snippet>
			<description><![CDATA[<div class="googft-info-window">
<b>description:</b> police<br>
<b>name:</b> 
</div>]]></description>
			<styleUrl>#Style2-point-1-map</styleUrl>
			<ExtendedData/><Point><coordinates>76.315901,10.046978</coordinates></Point></Placemark>
		<Placemark>
			<name>Seshadripuram Police Station</name>
			<snippet></snippet>
			<description><![CDATA[<div class="googft-info-window">
<b>description:</b> police<br>
<b>name:</b> Seshadripuram Police Station
</div>]]></description>
			<styleUrl>#Style2-point-1-map</styleUrl>
			<ExtendedData/><Point><coordinates>77.574348,12.98792</coordinates></Point></Placemark>
		<Placemark>
			<name>Lokmanya Tilak Police Chowkie Beat No 4</name>
			<snippet></snippet>
			<description><![CDATA[<div class="googft-info-window">
<b>description:</b> police<br>
<b>name:</b> Lokmanya Tilak Police Chowkie Beat No 4
</div>]]></description>
			<styleUrl>#Style2-point-1-map</styleUrl>
			<ExtendedData/><Point><coordinates>72.833389,18.947444</coordinates></Point></Placemark>
		<Placemark>
			<name>Lokmanya Tilak Police Station</name>
			<snippet></snippet>
			<description><![CDATA[<div class="googft-info-window">
<b>description:</b> police<br>
<b>name:</b> Lokmanya Tilak Police Station
</div>]]></description>
			<styleUrl>#Style2-point-1-map</styleUrl>
			<ExtendedData/><Point><coordinates>72.833129,18.946329</coordinates></Point></Placemark>
		<Placemark>
			<snippet></snippet>
			<description><![CDATA[<div class="googft-info-window">
<b>description:</b> police<br>
<b>name:</b> 
</div>]]></description>
			<styleUrl>#Style2-point-1-map</styleUrl>
			<ExtendedData/><Point><coordinates>78.483922,17.421139</coordinates></Point></Placemark>
		<Placemark>
			<name>Ramgopalpet Police Station</name>
			<snippet></snippet>
			<description><![CDATA[<div class="googft-info-window">
<b>description:</b> police<br>
<b>name:</b> Ramgopalpet Police Station
</div>]]></description>
			<styleUrl>#Style2-point-1-map</styleUrl>
			<ExtendedData/><Point><coordinates>78.488406,17.436289</coordinates></Point></Placemark>
		<Placemark>
			<name>Bowenpally Police Station</name>
			<snippet></snippet>
			<description><![CDATA[<div class="googft-info-window">
<b>description:</b> police<br>
<b>name:</b> Bowenpally Police Station
</div>]]></description>
			<styleUrl>#Style2-point-1-map</styleUrl>
			<ExtendedData/><Point><coordinates>78.472683,17.465167</coordinates></Point></Placemark>
		<Placemark>
			<name>Ukkadam Police Station(B2)</name>
			<snippet></snippet>
			<description><![CDATA[<div class="googft-info-window">
<b>description:</b> police<br>
<b>name:</b> Ukkadam Police Station(B2)
</div>]]></description>
			<styleUrl>#Style2-point-1-map</styleUrl>
			<ExtendedData/><Point><coordinates>76.961534,10.989004</coordinates></Point></Placemark>
		<Placemark>
			<name>Womens Police Station</name>
			<snippet></snippet>
			<description><![CDATA[<div class="googft-info-window">
<b>description:</b> police<br>
<b>name:</b> Womens Police Station
</div>]]></description>
			<styleUrl>#Style2-point-1-map</styleUrl>
			<ExtendedData/><Point><coordinates>76.968346,11.015569</coordinates></Point></Placemark>
		<Placemark>
			<name>Kattor Police Station</name>
			<snippet></snippet>
			<description><![CDATA[<div class="googft-info-window">
<b>description:</b> police<br>
<b>name:</b> Kattor Police Station
</div>]]></description>
			<styleUrl>#Style2-point-1-map</styleUrl>
			<ExtendedData/><Point><coordinates>76.968307,11.015303</coordinates></Point></Placemark>
		<Placemark>
			<name>Madukkarai Police Station</name>
			<snippet></snippet>
			<description><![CDATA[<div class="googft-info-window">
<b>description:</b> police<br>
<b>name:</b> Madukkarai Police Station
</div>]]></description>
			<styleUrl>#Style2-point-1-map</styleUrl>
			<ExtendedData/><Point><coordinates>76.94904,10.911453</coordinates></Point></Placemark>
		<Placemark>
			<name>Sea Beach Police Station</name>
			<snippet></snippet>
			<description><![CDATA[<div class="googft-info-window">
<b>description:</b> police<br>
<b>name:</b> Sea Beach Police Station
</div>]]></description>
			<styleUrl>#Style2-point-1-map</styleUrl>
			<ExtendedData/><Point><coordinates>85.825878,19.797099</coordinates></Point></Placemark>
		<Placemark>
			<name>Puri Town Police Station</name>
			<snippet></snippet>
			<description><![CDATA[<div class="googft-info-window">
<b>description:</b> police<br>
<b>name:</b> Puri Town Police Station
</div>]]></description>
			<styleUrl>#Style2-point-1-map</styleUrl>
			<ExtendedData/><Point><coordinates>85.822814,19.808766</coordinates></Point></Placemark>
		<Placemark>
			<name>Erattupetta Police Station</name>
			<snippet></snippet>
			<description><![CDATA[<div class="googft-info-window">
<b>description:</b> police<br>
<b>name:</b> Erattupetta Police Station
</div>]]></description>
			<styleUrl>#Style2-point-1-map</styleUrl>
			<ExtendedData/><Point><coordinates>76.776589,9.688763</coordinates></Point></Placemark>
		<Placemark>
			<name>Varthur Police Station</name>
			<snippet></snippet>
			<description><![CDATA[<div class="googft-info-window">
<b>description:</b> police<br>
<b>name:</b> Varthur Police Station
</div>]]></description>
			<styleUrl>#Style2-point-1-map</styleUrl>
			<ExtendedData/><Point><coordinates>77.746859,12.93799</coordinates></Point></Placemark>
		<Placemark>
			<name>Kothrud Police Station</name>
			<snippet></snippet>
			<description><![CDATA[<div class="googft-info-window">
<b>description:</b> police<br>
<b>name:</b> Kothrud Police Station
</div>]]></description>
			<styleUrl>#Style2-point-1-map</styleUrl>
			<ExtendedData/><Point><coordinates>73.802549,18.506696</coordinates></Point></Placemark>
		<Placemark>
			<name>Rajaji Nagar Police Station</name>
			<snippet></snippet>
			<description><![CDATA[<div class="googft-info-window">
<b>description:</b> police<br>
<b>name:</b> Rajaji Nagar Police Station
</div>]]></description>
			<styleUrl>#Style2-point-1-map</styleUrl>
			<ExtendedData/><Point><coordinates>77.554298,12.994506</coordinates></Point></Placemark>
		<Placemark>
			<name>Badavane Police Station</name>
			<snippet></snippet>
			<description><![CDATA[<div class="googft-info-window">
<b>description:</b> police<br>
<b>name:</b> Badavane Police Station
</div>]]></description>
			<styleUrl>#Style2-point-1-map</styleUrl>
			<ExtendedData/><Point><coordinates>75.919713,14.464795</coordinates></Point></Placemark>
		<Placemark>
			<name>Amberpet Police Station</name>
			<snippet></snippet>
			<description><![CDATA[<div class="googft-info-window">
<b>description:</b> police<br>
<b>name:</b> Amberpet Police Station
</div>]]></description>
			<styleUrl>#Style2-point-1-map</styleUrl>
			<ExtendedData/><Point><coordinates>78.518244,17.389303</coordinates></Point></Placemark>
		<Placemark>
			<name>Amberpet Police Station</name>
			<snippet></snippet>
			<description><![CDATA[<div class="googft-info-window">
<b>description:</b> police<br>
<b>name:</b> Amberpet Police Station
</div>]]></description>
			<styleUrl>#Style2-point-1-map</styleUrl>
			<ExtendedData/><Point><coordinates>78.516774,17.389902</coordinates></Point></Placemark>
		<Placemark>
			<snippet></snippet>
			<description><![CDATA[<div class="googft-info-window">
<b>description:</b> police<br>
<b>name:</b> 
</div>]]></description>
			<styleUrl>#Style2-point-1-map</styleUrl>
			<ExtendedData/><Point><coordinates>76.957448,10.328936</coordinates></Point></Placemark>
		<Placemark>
			<snippet></snippet>
			<description><![CDATA[<div class="googft-info-window">
<b>description:</b> police<br>
<b>name:</b> 
</div>]]></description>
			<styleUrl>#Style2-point-1-map</styleUrl>
			<ExtendedData/><Point><coordinates>77.181008,28.634519</coordinates></Point></Placemark>
		<Placemark>
			<name>Bistupur Police Station.</name>
			<snippet></snippet>
			<description><![CDATA[<div class="googft-info-window">
<b>description:</b> police<br>
<b>name:</b> Bistupur Police Station.
</div>]]></description>
			<styleUrl>#Style2-point-1-map</styleUrl>
			<ExtendedData/><Point><coordinates>86.184459,22.797989</coordinates></Point></Placemark>
		<Placemark>
			<name>Vikas Puri</name>
			<snippet></snippet>
			<description><![CDATA[<div class="googft-info-window">
<b>description:</b> police<br>
<b>name:</b> Vikas Puri
</div>]]></description>
			<styleUrl>#Style2-point-1-map</styleUrl>
			<ExtendedData/><Point><coordinates>77.068268,28.630144</coordinates></Point></Placemark>
		<Placemark>
			<name>Kolkata Police Headquarters</name>
			<snippet></snippet>
			<description><![CDATA[<div class="googft-info-window">
<b>description:</b> police<br>
<b>name:</b> Kolkata Police Headquarters
</div>]]></description>
			<styleUrl>#Style2-point-1-map</styleUrl>
			<ExtendedData/><Point><coordinates>88.352413,22.57254</coordinates></Point></Placemark>
		<Placemark>
			<name>TIRUPPUR NORTH</name>
			<snippet></snippet>
			<description><![CDATA[<div class="googft-info-window">
<b>description:</b> police<br>
<b>name:</b> TIRUPPUR NORTH
</div>]]></description>
			<styleUrl>#Style2-point-1-map</styleUrl>
			<ExtendedData/><Point><coordinates>77.345051,11.107892</coordinates></Point></Placemark>
		<Placemark>
			<snippet></snippet>
			<description><![CDATA[<div class="googft-info-window">
<b>description:</b> police<br>
<b>name:</b> 
</div>]]></description>
			<styleUrl>#Style2-point-1-map</styleUrl>
			<ExtendedData/><Point><coordinates>76.83486,31.63189</coordinates></Point></Placemark>
		<Placemark>
			<name>Khammam Rural</name>
			<snippet></snippet>
			<description><![CDATA[<div class="googft-info-window">
<b>description:</b> police<br>
<b>name:</b> Khammam Rural
</div>]]></description>
			<styleUrl>#Style2-point-1-map</styleUrl>
			<ExtendedData/><Point><coordinates>80.107361,17.244195</coordinates></Point></Placemark>
		<Placemark>
			<name>Varkala Police Station</name>
			<snippet></snippet>
			<description><![CDATA[<div class="googft-info-window">
<b>description:</b> police<br>
<b>name:</b> Varkala Police Station
</div>]]></description>
			<styleUrl>#Style2-point-1-map</styleUrl>
			<ExtendedData/><Point><coordinates>76.726402,8.734148</coordinates></Point></Placemark>
		<Placemark>
			<name>Mumbai Police HQ</name>
			<snippet></snippet>
			<description><![CDATA[<div class="googft-info-window">
<b>description:</b> police<br>
<b>name:</b> Mumbai Police HQ
</div>]]></description>
			<styleUrl>#Style2-point-1-map</styleUrl>
			<ExtendedData/><Point><coordinates>72.832889,18.944448</coordinates></Point></Placemark>
		<Placemark>
			<snippet></snippet>
			<description><![CDATA[<div class="googft-info-window">
<b>description:</b> police<br>
<b>name:</b> 
</div>]]></description>
			<styleUrl>#Style2-point-1-map</styleUrl>
			<ExtendedData/><Point><coordinates>76.154131,15.351807</coordinates></Point></Placemark>
		<Placemark>
			<name>SI office</name>
			<snippet></snippet>
			<description><![CDATA[<div class="googft-info-window">
<b>description:</b> police<br>
<b>name:</b> SI office
</div>]]></description>
			<styleUrl>#Style2-point-1-map</styleUrl>
			<ExtendedData/><Point><coordinates>76.154405,15.352676</coordinates></Point></Placemark>
		<Placemark>
			<name>City Police Station</name>
			<snippet></snippet>
			<description><![CDATA[<div class="googft-info-window">
<b>description:</b> police<br>
<b>name:</b> City Police Station
</div>]]></description>
			<styleUrl>#Style2-point-1-map</styleUrl>
			<ExtendedData/><Point><coordinates>74.027719,30.407384</coordinates></Point></Placemark>
		<Placemark>
			<name>Police Station</name>
			<snippet></snippet>
			<description><![CDATA[<div class="googft-info-window">
<b>description:</b> police<br>
<b>name:</b> Police Station
</div>]]></description>
			<styleUrl>#Style2-point-1-map</styleUrl>
			<ExtendedData/><Point><coordinates>73.033789,26.265511</coordinates></Point></Placemark>
		<Placemark>
			<name>Hebbal Police Station</name>
			<snippet></snippet>
			<description><![CDATA[<div class="googft-info-window">
<b>description:</b> police<br>
<b>name:</b> Hebbal Police Station
</div>]]></description>
			<styleUrl>#Style2-point-1-map</styleUrl>
			<ExtendedData/><Point><coordinates>77.589624,13.038619</coordinates></Point></Placemark>
		<Placemark>
			<snippet></snippet>
			<description><![CDATA[<div class="googft-info-window">
<b>description:</b> police<br>
<b>name:</b> 
</div>]]></description>
			<styleUrl>#Style2-point-1-map</styleUrl>
			<ExtendedData/><Point><coordinates>72.832365,18.967528</coordinates></Point></Placemark>
		<Placemark>
			<name>Police booth</name>
			<snippet></snippet>
			<description><![CDATA[<div class="googft-info-window">
<b>description:</b> police<br>
<b>name:</b> Police booth
</div>]]></description>
			<styleUrl>#Style2-point-1-map</styleUrl>
			<ExtendedData/><Point><coordinates>80.206035,12.965164</coordinates></Point></Placemark>
		<Placemark>
			<name>POLICE STATION KHUMANO</name>
			<snippet></snippet>
			<description><![CDATA[<div class="googft-info-window">
<b>description:</b> police<br>
<b>name:</b> POLICE STATION KHUMANO
</div>]]></description>
			<styleUrl>#Style2-point-1-map</styleUrl>
			<ExtendedData/><Point><coordinates>76.3517,30.812044</coordinates></Point></Placemark>
		<Placemark>
			<name>POLICE STATION GHARUAN</name>
			<snippet></snippet>
			<description><![CDATA[<div class="googft-info-window">
<b>description:</b> police<br>
<b>name:</b> POLICE STATION GHARUAN
</div>]]></description>
			<styleUrl>#Style2-point-1-map</styleUrl>
			<ExtendedData/><Point><coordinates>76.541375,30.780368</coordinates></Point></Placemark>
		<Placemark>
			<name>Police Station</name>
			<snippet></snippet>
			<description><![CDATA[<div class="googft-info-window">
<b>description:</b> police<br>
<b>name:</b> Police Station
</div>]]></description>
			<styleUrl>#Style2-point-1-map</styleUrl>
			<ExtendedData/><Point><coordinates>75.67496,30.846113</coordinates></Point></Placemark>
		<Placemark>
			<name>Police station</name>
			<snippet></snippet>
			<description><![CDATA[<div class="googft-info-window">
<b>description:</b> police<br>
<b>name:</b> Police station
</div>]]></description>
			<styleUrl>#Style2-point-1-map</styleUrl>
			<ExtendedData/><Point><coordinates>74.257352,30.607948</coordinates></Point></Placemark>
		<Placemark>
			<name>Kumaraswamy Layout Police Station</name>
			<snippet></snippet>
			<description><![CDATA[<div class="googft-info-window">
<b>description:</b> police<br>
<b>name:</b> Kumaraswamy Layout Police Station
</div>]]></description>
			<styleUrl>#Style2-point-1-map</styleUrl>
			<ExtendedData/><Point><coordinates>77.562865,12.905196</coordinates></Point></Placemark>
		<Placemark>
			<snippet></snippet>
			<description><![CDATA[<div class="googft-info-window">
<b>description:</b> police<br>
<b>name:</b> 
</div>]]></description>
			<styleUrl>#Style2-point-1-map</styleUrl>
			<ExtendedData/><Point><coordinates>72.824346,18.930262</coordinates></Point></Placemark>
		<Placemark>
			<name>Sadar Police Station Fzr City</name>
			<snippet></snippet>
			<description><![CDATA[<div class="googft-info-window">
<b>description:</b> police<br>
<b>name:</b> Sadar Police Station Fzr City
</div>]]></description>
			<styleUrl>#Style2-point-1-map</styleUrl>
			<ExtendedData/><Point><coordinates>74.613064,30.946949</coordinates></Point></Placemark>
		<Placemark>
			<name>Subedari Police Station</name>
			<snippet></snippet>
			<description><![CDATA[<div class="googft-info-window">
<b>description:</b> police<br>
<b>name:</b> Subedari Police Station
</div>]]></description>
			<styleUrl>#Style2-point-1-map</styleUrl>
			<ExtendedData/><Point><coordinates>79.543662,17.995847</coordinates></Point></Placemark>
		<Placemark>
			<name>Hanamkonda Police Station</name>
			<snippet></snippet>
			<description><![CDATA[<div class="googft-info-window">
<b>description:</b> police<br>
<b>name:</b> Hanamkonda Police Station
</div>]]></description>
			<styleUrl>#Style2-point-1-map</styleUrl>
			<ExtendedData/><Point><coordinates>79.568636,18.007004</coordinates></Point></Placemark>
		<Placemark>
			<name>D.C.Office</name>
			<snippet></snippet>
			<description><![CDATA[<div class="googft-info-window">
<b>description:</b> police<br>
<b>name:</b> D.C.Office
</div>]]></description>
			<styleUrl>#Style2-point-1-map</styleUrl>
			<ExtendedData/><Point><coordinates>74.613407,30.926832</coordinates></Point></Placemark>
		<Placemark>
			<name>main gate D.C.office</name>
			<snippet></snippet>
			<description><![CDATA[<div class="googft-info-window">
<b>description:</b> police<br>
<b>name:</b> main gate D.C.office
</div>]]></description>
			<styleUrl>#Style2-point-1-map</styleUrl>
			<ExtendedData/><Point><coordinates>74.613474,30.927909</coordinates></Point></Placemark>
		<Placemark>
			<name>Sadar Police Station Ferozepur Cantt</name>
			<snippet></snippet>
			<description><![CDATA[<div class="googft-info-window">
<b>description:</b> police<br>
<b>name:</b> Sadar Police Station Ferozepur Cantt
</div>]]></description>
			<styleUrl>#Style2-point-1-map</styleUrl>
			<ExtendedData/><Point><coordinates>74.627539,30.928621</coordinates></Point></Placemark>
		<Placemark>
			<name>Police chowki Basti tainkan wali</name>
			<snippet></snippet>
			<description><![CDATA[<div class="googft-info-window">
<b>description:</b> police<br>
<b>name:</b> Police chowki Basti tainkan wali
</div>]]></description>
			<styleUrl>#Style2-point-1-map</styleUrl>
			<ExtendedData/><Point><coordinates>74.622899,30.937325</coordinates></Point></Placemark>
		<Placemark>
			<name>Civil Lines Police Station, Rampur</name>
			<snippet></snippet>
			<description><![CDATA[<div class="googft-info-window">
<b>description:</b> police<br>
<b>name:</b> Civil Lines Police Station, Rampur
</div>]]></description>
			<styleUrl>#Style2-point-1-map</styleUrl>
			<ExtendedData/><Point><coordinates>79.019621,28.781742</coordinates></Point></Placemark>
		<Placemark>
			<name>Police Post Kaushambi, Police Station Indirapuram</name>
			<snippet></snippet>
			<description><![CDATA[<div class="googft-info-window">
<b>description:</b> police<br>
<b>name:</b> Police Post Kaushambi, Police Station Indirapuram
</div>]]></description>
			<styleUrl>#Style2-point-1-map</styleUrl>
			<ExtendedData/><Point><coordinates>77.327065,28.642188</coordinates></Point></Placemark>
		<Placemark>
			<name>Police station</name>
			<snippet></snippet>
			<description><![CDATA[<div class="googft-info-window">
<b>description:</b> police<br>
<b>name:</b> Police station
</div>]]></description>
			<styleUrl>#Style2-point-1-map</styleUrl>
			<ExtendedData/><Point><coordinates>75.978871,30.868361</coordinates></Point></Placemark>
		<Placemark>
			<name>police station mehtiana</name>
			<snippet></snippet>
			<description><![CDATA[<div class="googft-info-window">
<b>description:</b> police<br>
<b>name:</b> police station mehtiana
</div>]]></description>
			<styleUrl>#Style2-point-1-map</styleUrl>
			<ExtendedData/><Point><coordinates>75.822398,31.377628</coordinates></Point></Placemark>
		<Placemark>
			<name>Juna Rajawada Police Station</name>
			<snippet></snippet>
			<description><![CDATA[<div class="googft-info-window">
<b>description:</b> police<br>
<b>name:</b> Juna Rajawada Police Station
</div>]]></description>
			<styleUrl>#Style2-point-1-map</styleUrl>
			<ExtendedData/><Point><coordinates>74.223529,16.694502</coordinates></Point></Placemark>
		<Placemark>
			<snippet></snippet>
			<description><![CDATA[<div class="googft-info-window">
<b>description:</b> police<br>
<b>name:</b> 
</div>]]></description>
			<styleUrl>#Style2-point-1-map</styleUrl>
			<ExtendedData/><Point><coordinates>80.277169,13.124493</coordinates></Point></Placemark>
		<Placemark>
			<name>Ashok Vihar Police Station</name>
			<snippet></snippet>
			<description><![CDATA[<div class="googft-info-window">
<b>description:</b> police<br>
<b>name:</b> Ashok Vihar Police Station
</div>]]></description>
			<styleUrl>#Style2-point-1-map</styleUrl>
			<ExtendedData/><Point><coordinates>77.173628,28.692674</coordinates></Point></Placemark>
		<Placemark>
			<name>Thana Samana</name>
			<snippet></snippet>
			<description><![CDATA[<div class="googft-info-window">
<b>description:</b> police<br>
<b>name:</b> Thana Samana
</div>]]></description>
			<styleUrl>#Style2-point-1-map</styleUrl>
			<ExtendedData/><Point><coordinates>76.167041,30.155904</coordinates></Point></Placemark>
		<Placemark>
			<name>Karamadai Police Station</name>
			<snippet></snippet>
			<description><![CDATA[<div class="googft-info-window">
<b>description:</b> police<br>
<b>name:</b> Karamadai Police Station
</div>]]></description>
			<styleUrl>#Style2-point-1-map</styleUrl>
			<ExtendedData/><Point><coordinates>76.959963,11.243545</coordinates></Point></Placemark>
		<Placemark>
			<name>Police station, block road, sudhar</name>
			<snippet></snippet>
			<description><![CDATA[<div class="googft-info-window">
<b>description:</b> police<br>
<b>name:</b> Police station, block road, sudhar
</div>]]></description>
			<styleUrl>#Style2-point-1-map</styleUrl>
			<ExtendedData/><Point><coordinates>75.647012,30.772588</coordinates></Point></Placemark>
		<Placemark>
			<name>Malkajgiri Police Station</name>
			<snippet></snippet>
			<description><![CDATA[<div class="googft-info-window">
<b>description:</b> police<br>
<b>name:</b> Malkajgiri Police Station
</div>]]></description>
			<styleUrl>#Style2-point-1-map</styleUrl>
			<ExtendedData/><Point><coordinates>78.537414,17.449871</coordinates></Point></Placemark>
		<Placemark>
			<name>police station dehlon</name>
			<snippet></snippet>
			<description><![CDATA[<div class="googft-info-window">
<b>description:</b> police<br>
<b>name:</b> police station dehlon
</div>]]></description>
			<styleUrl>#Style2-point-1-map</styleUrl>
			<ExtendedData/><Point><coordinates>75.849281,30.743319</coordinates></Point></Placemark>
		<Placemark>
			<name>ABIDS Police Station</name>
			<snippet></snippet>
			<description><![CDATA[<div class="googft-info-window">
<b>description:</b> police<br>
<b>name:</b> ABIDS Police Station
</div>]]></description>
			<styleUrl>#Style2-point-1-map</styleUrl>
			<ExtendedData/><Point><coordinates>78.48521,17.394662</coordinates></Point></Placemark>
		<Placemark>
			<name>Porur Police Station</name>
			<snippet></snippet>
			<description><![CDATA[<div class="googft-info-window">
<b>description:</b> police<br>
<b>name:</b> Porur Police Station
</div>]]></description>
			<styleUrl>#Style2-point-1-map</styleUrl>
			<ExtendedData/><Point><coordinates>80.160129,13.034307</coordinates></Point></Placemark>
		<Placemark>
			<name>Vyali Kaval Police Station</name>
			<snippet></snippet>
			<description><![CDATA[<div class="googft-info-window">
<b>description:</b> police<br>
<b>name:</b> Vyali Kaval Police Station
</div>]]></description>
			<styleUrl>#Style2-point-1-map</styleUrl>
			<ExtendedData/><Point><coordinates>77.578628,13.001573</coordinates></Point></Placemark>
		<Placemark>
			<name>Yelahanka New Town</name>
			<snippet></snippet>
			<description><![CDATA[<div class="googft-info-window">
<b>description:</b> police<br>
<b>name:</b> Yelahanka New Town
</div>]]></description>
			<styleUrl>#Style2-point-1-map</styleUrl>
			<ExtendedData/><Point><coordinates>77.580315,13.100325</coordinates></Point></Placemark>
		<Placemark>
			<name>Koramangala Police Station</name>
			<snippet></snippet>
			<description><![CDATA[<div class="googft-info-window">
<b>description:</b> police<br>
<b>name:</b> Koramangala Police Station
</div>]]></description>
			<styleUrl>#Style2-point-1-map</styleUrl>
			<ExtendedData/><Point><coordinates>77.621766,12.941436</coordinates></Point></Placemark>
		<Placemark>
			<name>Subramanyanagar police station</name>
			<snippet></snippet>
			<description><![CDATA[<div class="googft-info-window">
<b>description:</b> police<br>
<b>name:</b> Subramanyanagar police station
</div>]]></description>
			<styleUrl>#Style2-point-1-map</styleUrl>
			<ExtendedData/><Point><coordinates>77.554032,13.005351</coordinates></Point></Placemark>
		<Placemark>
			<name>Tiptur Rural Police station</name>
			<snippet></snippet>
			<description><![CDATA[<div class="googft-info-window">
<b>description:</b> police<br>
<b>name:</b> Tiptur Rural Police station
</div>]]></description>
			<styleUrl>#Style2-point-1-map</styleUrl>
			<ExtendedData/><Point><coordinates>76.460982,13.26089</coordinates></Point></Placemark>
		<Placemark>
			<name>Subramanyapura Police Station</name>
			<snippet></snippet>
			<description><![CDATA[<div class="googft-info-window">
<b>description:</b> police<br>
<b>name:</b> Subramanyapura Police Station
</div>]]></description>
			<styleUrl>#Style2-point-1-map</styleUrl>
			<ExtendedData/><Point><coordinates>77.542823,12.89776</coordinates></Point></Placemark>
		<Placemark>
			<name>Traffic Police Station Udupi</name>
			<snippet></snippet>
			<description><![CDATA[<div class="googft-info-window">
<b>description:</b> police<br>
<b>name:</b> Traffic Police Station Udupi
</div>]]></description>
			<styleUrl>#Style2-point-1-map</styleUrl>
			<ExtendedData/><Point><coordinates>74.748124,13.332192</coordinates></Point></Placemark>
		<Placemark>
			<name>Harohalli Police station</name>
			<snippet></snippet>
			<description><![CDATA[<div class="googft-info-window">
<b>description:</b> police<br>
<b>name:</b> Harohalli Police station
</div>]]></description>
			<styleUrl>#Style2-point-1-map</styleUrl>
			<ExtendedData/><Point><coordinates>77.469343,12.680494</coordinates></Point></Placemark>
		<Placemark>
			<name>Mahalaxmi Layout Police Station</name>
			<snippet></snippet>
			<description><![CDATA[<div class="googft-info-window">
<b>description:</b> police<br>
<b>name:</b> Mahalaxmi Layout Police Station
</div>]]></description>
			<styleUrl>#Style2-point-1-map</styleUrl>
			<ExtendedData/><Point><coordinates>77.547293,13.002773</coordinates></Point></Placemark>
		<Placemark>
			<name>Police station</name>
			<snippet></snippet>
			<description><![CDATA[<div class="googft-info-window">
<b>description:</b> police<br>
<b>name:</b> Police station
</div>]]></description>
			<styleUrl>#Style2-point-1-map</styleUrl>
			<ExtendedData/><Point><coordinates>76.209664,15.053016</coordinates></Point></Placemark>
		<Placemark>
			<snippet></snippet>
			<description><![CDATA[<div class="googft-info-window">
<b>description:</b> police<br>
<b>name:</b> 
</div>]]></description>
			<styleUrl>#Style2-point-1-map</styleUrl>
			<ExtendedData/><Point><coordinates>76.971318,11.001692</coordinates></Point></Placemark>
		<Placemark>
			<name>Police Outpost</name>
			<snippet></snippet>
			<description><![CDATA[<div class="googft-info-window">
<b>description:</b> police<br>
<b>name:</b> Police Outpost
</div>]]></description>
			<styleUrl>#Style2-point-1-map</styleUrl>
			<ExtendedData/><Point><coordinates>87.308206,22.319307</coordinates></Point></Placemark>
		<Placemark>
			<name>Nelamangala Police station</name>
			<snippet></snippet>
			<description><![CDATA[<div class="googft-info-window">
<b>description:</b> police<br>
<b>name:</b> Nelamangala Police station
</div>]]></description>
			<styleUrl>#Style2-point-1-map</styleUrl>
			<ExtendedData/><Point><coordinates>77.39124,13.099454</coordinates></Point></Placemark>
		<Placemark>
			<name>Nelamangala Rural Police station</name>
			<snippet></snippet>
			<description><![CDATA[<div class="googft-info-window">
<b>description:</b> police<br>
<b>name:</b> Nelamangala Rural Police station
</div>]]></description>
			<styleUrl>#Style2-point-1-map</styleUrl>
			<ExtendedData/><Point><coordinates>77.403646,13.095895</coordinates></Point></Placemark>
		<Placemark>
			<name>B-11 Saibaba Colony Police Station</name>
			<snippet></snippet>
			<description><![CDATA[<div class="googft-info-window">
<b>description:</b> police<br>
<b>name:</b> B-11 Saibaba Colony Police Station
</div>]]></description>
			<styleUrl>#Style2-point-1-map</styleUrl>
			<ExtendedData/><Point><coordinates>76.951542,11.026889</coordinates></Point></Placemark>
		<Placemark>
			<name>Coimbatore Central Jail</name>
			<snippet></snippet>
			<description><![CDATA[<div class="googft-info-window">
<b>description:</b> police<br>
<b>name:</b> Coimbatore Central Jail
</div>]]></description>
			<styleUrl>#Style2-point-1-map</styleUrl>
			<ExtendedData/><Point><coordinates>76.97217,11.013792</coordinates></Point></Placemark>
		<Placemark>
			<name>South Police Station</name>
			<snippet></snippet>
			<description><![CDATA[<div class="googft-info-window">
<b>description:</b> police<br>
<b>name:</b> South Police Station
</div>]]></description>
			<styleUrl>#Style2-point-1-map</styleUrl>
			<ExtendedData/><Point><coordinates>76.329892,9.494421</coordinates></Point></Placemark>
		<Placemark>
			<snippet></snippet>
			<description><![CDATA[<div class="googft-info-window">
<b>description:</b> police<br>
<b>name:</b> 
</div>]]></description>
			<styleUrl>#Style2-point-1-map</styleUrl>
			<ExtendedData/><Point><coordinates>77.561501,12.936344</coordinates></Point></Placemark>
		<Placemark>
			<name>Harihara Police Station</name>
			<snippet></snippet>
			<description><![CDATA[<div class="googft-info-window">
<b>description:</b> police<br>
<b>name:</b> Harihara Police Station
</div>]]></description>
			<styleUrl>#Style2-point-1-map</styleUrl>
			<ExtendedData/><Point><coordinates>75.806221,14.514982</coordinates></Point></Placemark>
		<Placemark>
			<name>Police Station, Punnapra</name>
			<snippet></snippet>
			<description><![CDATA[<div class="googft-info-window">
<b>description:</b> police<br>
<b>name:</b> Police Station, Punnapra
</div>]]></description>
			<styleUrl>#Style2-point-1-map</styleUrl>
			<ExtendedData/><Point><coordinates>76.345372,9.430216</coordinates></Point></Placemark>
		<Placemark>
			<name>Polica Station Dhanbad</name>
			<snippet></snippet>
			<description><![CDATA[<div class="googft-info-window">
<b>description:</b> police<br>
<b>name:</b> Polica Station Dhanbad
</div>]]></description>
			<styleUrl>#Style2-point-1-map</styleUrl>
			<ExtendedData/><Point><coordinates>86.433816,23.79651</coordinates></Point></Placemark>
		<Placemark>
			<name>Jp Nagar Police Station</name>
			<snippet></snippet>
			<description><![CDATA[<div class="googft-info-window">
<b>description:</b> police<br>
<b>name:</b> Jp Nagar Police Station
</div>]]></description>
			<styleUrl>#Style2-point-1-map</styleUrl>
			<ExtendedData/><Point><coordinates>77.587583,12.911738</coordinates></Point></Placemark>